{"type": "FeatureCollection", "features": [{"type": "Feature", "properties": {"id": "MC0001", "name": "les ulis", "ordre": 1, "adresse": "Avenue de l'Aubrac, Les Ulis, Palaiseau", "cumul_km": 0.6}, "geometry": {"type": "Point", "coordinates": [2.1701691, 48.6776178]}}, {"type": "Feature", "properties": {"id": "MC0002", "name": "courtaboeuf", "ordre": 2, "adresse": "Avenue de l'Océanie, Parc d'Activités de Courtabœuf, Villejust", "cumul_km": 3.9}, "geometry": {"type": "Point", "coordinates": [2.2056508, 48.6833785]}}, {"type": "Feature", "properties": {"id": "MC0003", "name": "montlhery", "ordre": 3, "adresse": "Rue des Bourguignons, Les Montjoies, Argenlieu", "cumul_km": 11.5}, "geometry": {"type": "Point", "coordinates": [2.2731882, 48.650932]}}, {"type": "Feature", "properties": {"id": "MC0004", "name": "bretigny sur orge", "ordre": 4, "adresse": "Avenue de la Maison Neuve, Parc d'Activité Maison Neuve - Les Cochets, Brétigny-sur-Orge", "cumul_km": 20.6}, "geometry": {"type": "Point", "coordinates": [2.302358, 48.5876455]}}, {"type": "Feature", "properties": {"id": "MC0005", "name": "avrainville", "ordre": 5, "adresse": "Mc Drive, La Voie Creuse, Avrainville", "cumul_km": 27.8}, "geometry": {"type": "Point", "coordinates": [2.2305041, 48.5676759]}}, {"type": "Feature", "properties": {"id": "MC0006", "name": "itteville", "ordre": 6, "adresse": "Mc Drive, ZAC de la Bâche, Itteville", "cumul_km": 42.3}, "geometry": {"type": "Point", "coordinates": [2.3512104, 48.4993425]}}, {"type": "Feature", "properties": {"id": "MC0007", "name": "saint fargeau ponthierry", "ordre": 7, "adresse": "D 607, Saint-Fargeau-Ponthierry, Melun", "cumul_km": 58.7}, "geometry": {"type": "Point", "coordinates": [2.5211335, 48.5379441]}}, {"type": "Feature", "properties": {"id": "MC0008", "name": "mennecy montvrain", "ordre": 8, "adresse": "Boulevard Charles de Gaulle, ZAC de Montvrain 1, Résidence Cézanne", "cumul_km": 66.7}, "geometry": {"type": "Point", "coordinates": [2.4445976, 48.566168]}}, {"type": "Feature", "properties": {"id": "MC0009", "name": "villabe a6", "ordre": 9, "adresse": "Route de Villoison, Centre commercial - Derrière la Ferme, Hameau de Villoison", "cumul_km": 69.4}, "geometry": {"type": "Point", "coordinates": [2.4473119, 48.5860127]}}, {"type": "Feature", "properties": {"id": "MC0010", "name": "villabe zone commerciale", "ordre": 10, "adresse": "Route de Villabé, Villabé, Évry", "cumul_km": 70.7}, "geometry": {"type": "Point", "coordinates": [2.443651, 48.5953489]}}, {"type": "Feature", "properties": {"id": "MC0011", "name": "villabe", "ordre": 11, "adresse": "Route de Villabé, Villabé, Évry", "cumul_km": 70.7}, "geometry": {"type": "Point", "coordinates": [2.443651, 48.5953489]}}, {"type": "Feature", "properties": {"id": "MC0012", "name": "corbeil essonnes", "ordre": 12, "adresse": "Avenue Paul Maintenant, Corbeil-Essonnes, Évry", "cumul_km": 73.6}, "geometry": {"type": "Point", "coordinates": [2.4555924, 48.6141711]}}, {"type": "Feature", "properties": {"id": "MC0013", "name": "evry", "ordre": 13, "adresse": "Avenue Paul Maintenant, Corbeil-Essonnes, Évry", "cumul_km": 73.6}, "geometry": {"type": "Point", "coordinates": [2.4555924, 48.6141711]}}, {"type": "Feature", "properties": {"id": "MC0014", "name": "courcouronnes", "ordre": 14, "adresse": "43150, Rue Alcide de Gasperi, Parc d'activités Bois Briard", "cumul_km": 76.4}, "geometry": {"type": "Point", "coordinates": [2.4246884, 48.6150946]}}, {"type": "Feature", "properties": {"id": "MC0015", "name": "fleury merogis", "ordre": 15, "adresse": "Rue Édouard Aubert, ZI La Marinière, Fleury-Mérogis", "cumul_km": 81.4}, "geometry": {"type": "Point", "coordinates": [2.3711432, 48.6232405]}}, {"type": "Feature", "properties": {"id": "MC0016", "name": "sainte genevieve des bois", "ordre": 16, "adresse": "Avenue du Bout du Plessis, La Croix Blanche, Sainte-Geneviève-des-Bois", "cumul_km": 84.0}, "geometry": {"type": "Point", "coordinates": [2.3422562, 48.6208734]}}, {"type": "Feature", "properties": {"id": "MC0017", "name": "saint michel sur orge", "ordre": 17, "adresse": "Avenue de Sainte-Geneviève, Saint-Michel-sur-Orge, Palaiseau", "cumul_km": 87.1}, "geometry": {"type": "Point", "coordinates": [2.3208757, 48.6384975]}}, {"type": "Feature", "properties": {"id": "MC0018", "name": "epinay sur orge", "ordre": 18, "adresse": "Chemin des Tourelles, Épinay-sur-Orge, Palaiseau", "cumul_km": 91.6}, "geometry": {"type": "Point", "coordinates": [2.3374262, 48.6689085]}}, {"type": "Feature", "properties": {"id": "MC0019", "name": "villebon", "ordre": 19, "adresse": "Rue du Chemin de Briis, Villebon 2, La Roche", "cumul_km": 100.6}, "geometry": {"type": "Point", "coordinates": [2.2536551, 48.703643]}}, {"type": "Feature", "properties": {"id": "MC0020", "name": "massy le pileu", "ordre": 20, "adresse": "Avenue du Maréchal Kœnig, Atlantis, Massy", "cumul_km": 104.0}, "geometry": {"type": "Point", "coordinates": [2.2764612, 48.7235171]}}, {"type": "Feature", "properties": {"id": "MC0021", "name": "massy", "ordre": 21, "adresse": "Avenue du Maréchal Kœnig, Atlantis, Massy", "cumul_km": 104.0}, "geometry": {"type": "Point", "coordinates": [2.2764612, 48.7235171]}}, {"type": "Feature", "properties": {"id": "MC0022", "name": "chilly mazarin", "ordre": 22, "adresse": "Rue Guynemer, ZAC du Pérou, Chilly-Mazarin", "cumul_km": 106.4}, "geometry": {"type": "Point", "coordinates": [2.2991287, 48.7158611]}}, {"type": "Feature", "properties": {"id": "MC0023", "name": "morangis", "ordre": 23, "adresse": "Rue de Savigny, Z. I. Les Sables, Morangis", "cumul_km": 111.1}, "geometry": {"type": "Point", "coordinates": [2.3380279, 48.6930129]}}, {"type": "Feature", "properties": {"id": "MC0024", "name": "athis mons", "ordre": 24, "adresse": "Rue Camille Flammarion, Centre-Ville, Athis-Mons", "cumul_km": 114.9}, "geometry": {"type": "Point", "coordinates": [2.371709, 48.7093114]}}, {"type": "Feature", "properties": {"id": "MC0025", "name": "grigny", "ordre": 25, "adresse": "Rue des Halles, Grigny, Évry", "cumul_km": 120.7}, "geometry": {"type": "Point", "coordinates": [2.3936552, 48.6696255]}}, {"type": "Feature", "properties": {"id": "MC0026", "name": "vigneux sur seine", "ordre": 26, "adresse": "Avenue Henri Barbusse, Vigneux-sur-Seine, Évry", "cumul_km": 125.4}, "geometry": {"type": "Point", "coordinates": [2.4176052, 48.6997563]}}, {"type": "Feature", "properties": {"id": "MC0027", "name": "montgeron", "ordre": 27, "adresse": "Rue Mercure, Zone d'Activité du Bac d'Ablon, Montgeron", "cumul_km": 128.3}, "geometry": {"type": "Point", "coordinates": [2.4396017, 48.7147315]}}, {"type": "Feature", "properties": {"id": "MC0028", "name": "villeneuve le roi", "ordre": 28, "adresse": "Rue des Mariniers, Villeneuve-le-Roi, L'Haÿ-les-Roses", "cumul_km": 130.2}, "geometry": {"type": "Point", "coordinates": [2.435142, 48.7285243]}}, {"type": "Feature", "properties": {"id": "MC0029", "name": "yerres", "ordre": 29, "adresse": "Rue Marceau Balliot, Le Moulin de l'Abbaye, Hameau des Camaldules", "cumul_km": 136.5}, "geometry": {"type": "Point", "coordinates": [2.4965047, 48.7075492]}}, {"type": "Feature", "properties": {"id": "MC0030", "name": "draveil", "ordre": 30, "adresse": "23, Avenue de l'Europe, Les Bergeries", "cumul_km": 143.3}, "geometry": {"type": "Point", "coordinates": [2.4314511, 48.6836269]}}, {"type": "Feature", "properties": {"id": "MC0031", "name": "saint germain les corbeil", "ordre": 31, "adresse": "Avenue de la Pointe Ringale, Saint-Germain-lès-Corbeil, Évry", "cumul_km": 152.5}, "geometry": {"type": "Point", "coordinates": [2.4924071, 48.6305435]}}, {"type": "Feature", "properties": {"id": "MC0032", "name": "boussy saint antoine", "ordre": 32, "adresse": "Avenue Jean Moulin, Boussy-Saint-Antoine, Évry", "cumul_km": 160.7}, "geometry": {"type": "Point", "coordinates": [2.5343961, 48.6836055]}}, {"type": "Feature", "properties": {"id": "MC0033", "name": "combs la ville", "ordre": 33, "adresse": "Rue Pierre et Marie Curie, Combs-la-Ville, Melun", "cumul_km": 166.2}, "geometry": {"type": "Point", "coordinates": [2.5636614, 48.6490998]}}, {"type": "Feature", "properties": {"id": "MC0034", "name": "moissy cramayel", "ordre": 34, "adresse": "Avenue André Ampère, Parc d'activités Chateau d'eau, Moissy-Cramayel", "cumul_km": 169.8}, "geometry": {"type": "Point", "coordinates": [2.5633428, 48.6230276]}}, {"type": "Feature", "properties": {"id": "MC0035", "name": "melun zac du champs de foire", "ordre": 35, "adresse": "N 6, Melun, Seine-et-Marne", "cumul_km": 181.1}, "geometry": {"type": "Point", "coordinates": [2.6370306, 48.556967]}}, {"type": "Feature", "properties": {"id": "MC0036", "name": "melun senart", "ordre": 36, "adresse": "N 6, Melun, Seine-et-Marne", "cumul_km": 181.1}, "geometry": {"type": "Point", "coordinates": [2.6370306, 48.556967]}}, {"type": "Feature", "properties": {"id": "MC0037", "name": "rubelles", "ordre": 37, "adresse": "Route de Meaux, Quartier des Trois Noyers, Rubelles", "cumul_km": 184.3}, "geometry": {"type": "Point", "coordinates": [2.671732, 48.5547785]}}, {"type": "Feature", "properties": {"id": "MC0038", "name": "dammarie les lys", "ordre": 38, "adresse": "494, Avenue du Général Leclerc, Dammarie-les-Lys", "cumul_km": 189.0}, "geometry": {"type": "Point", "coordinates": [2.6527748, 48.5226725]}}, {"type": "Feature", "properties": {"id": "MC0039", "name": "saint pierre les nemours", "ordre": 39, "adresse": "2, Rue du Port, Saint-Pierre-lès-Nemours", "cumul_km": 223.0}, "geometry": {"type": "Point", "coordinates": [2.6844866, 48.2770345]}}, {"type": "Feature", "properties": {"id": "MC0040", "name": "chalette sur loing", "ordre": 40, "adresse": "Rue Aristide Briand, Centre Ville, Chalette-sur-Loing", "cumul_km": 259.9}, "geometry": {"type": "Point", "coordinates": [2.7384013, 48.0123448]}}, {"type": "Feature", "properties": {"id": "MC0041", "name": "amilly", "ordre": 41, "adresse": "Rue de Saint-Firmin des Vignes, Zone commerciale d'Antibes, Saint-Firmin des Vignes", "cumul_km": 264.6}, "geometry": {"type": "Point", "coordinates": [2.7346322, 47.9783205]}}, {"type": "Feature", "properties": {"id": "MC0042", "name": "bonnee", "ordre": 42, "adresse": "Route de Sully, Bonnée, Orléans", "cumul_km": 306.1}, "geometry": {"type": "Point", "coordinates": [2.3801358, 47.7939345]}}, {"type": "Feature", "properties": {"id": "MC0043", "name": "gien", "ordre": 43, "adresse": "D 940, Gien, Montargis", "cumul_km": 332.9}, "geometry": {"type": "Point", "coordinates": [2.640508, 47.708207]}}, {"type": "Feature", "properties": {"id": "MC0044", "name": "cosne sur loire", "ordre": 44, "adresse": "Avenue du 85ème de Ligne, Chantier Blanc, Cosne-sur-Loire", "cumul_km": 384.0}, "geometry": {"type": "Point", "coordinates": [2.9231966, 47.390578]}}, {"type": "Feature", "properties": {"id": "MC0045", "name": "bourges", "ordre": 45, "adresse": "Chaussée de Chappe, Les Barbottes, Château des Gadeau", "cumul_km": 446.4}, "geometry": {"type": "Point", "coordinates": [2.4215346, 47.0926774]}}, {"type": "Feature", "properties": {"id": "MC0046", "name": "saint doulchard", "ordre": 46, "adresse": "Route d'Orléans, Saint-Doulchard, Bourges", "cumul_km": 451.3}, "geometry": {"type": "Point", "coordinates": [2.3775519, 47.112143]}}, {"type": "Feature", "properties": {"id": "MC0047", "name": "vierzon", "ordre": 47, "adresse": "Avenue du 19 Mars 1962, Le Desert, Vierzon", "cumul_km": 483.4}, "geometry": {"type": "Point", "coordinates": [2.0913743, 47.2392346]}}, {"type": "Feature", "properties": {"id": "MC0048", "name": "issoudun", "ordre": 48, "adresse": "Drive In McDonald's, Issoudun, Indre", "cumul_km": 523.7}, "geometry": {"type": "Point", "coordinates": [2.0065161, 46.9526891]}}, {"type": "Feature", "properties": {"id": "MC0049", "name": "deols", "ordre": 49, "adresse": "Mac Drive, Le Grilloux-Tarmac, Déols", "cumul_km": 555.4}, "geometry": {"type": "Point", "coordinates": [1.7034246, 46.8520668]}}, {"type": "Feature", "properties": {"id": "MC0050", "name": "chateauroux", "ordre": 50, "adresse": "Boulevard de Cluis, Châteauroux, Indre", "cumul_km": 561.9}, "geometry": {"type": "Point", "coordinates": [1.6977263, 46.8050204]}}, {"type": "Feature", "properties": {"id": "MC0051", "name": "saint maur cap sud", "ordre": 51, "adresse": "Avenue d'Occitanie, Cap Sud, Saint-Maur", "cumul_km": 566.6}, "geometry": {"type": "Point", "coordinates": [1.6566895, 46.7859651]}}, {"type": "Feature", "properties": {"id": "MC0052", "name": "la chatre", "ordre": 52, "adresse": "54, Avenue d'Auvergne, ZAC Avenue d'Auvergne", "cumul_km": 609.8}, "geometry": {"type": "Point", "coordinates": [2.0027873, 46.5818436]}}, {"type": "Feature", "properties": {"id": "MC0053", "name": "gueret", "ordre": 53, "adresse": "Rue Marc Bloch, Pommeil, Guéret", "cumul_km": 667.9}, "geometry": {"type": "Point", "coordinates": [1.8848771, 46.1680849]}}, {"type": "Feature", "properties": {"id": "MC0054", "name": "la souterraine", "ordre": 54, "adresse": "Route Centre Europe Atlantique, La Pouyade, La Souterraine", "cumul_km": 705.0}, "geometry": {"type": "Point", "coordinates": [1.5062482, 46.229568]}}, {"type": "Feature", "properties": {"id": "MC0055", "name": "limoges family village", "ordre": 55, "adresse": "Rue Amédée Gordini, Family Village Limoges, Le Petit Grossereix", "cumul_km": 756.0}, "geometry": {"type": "Point", "coordinates": [1.2812698, 45.8943568]}}, {"type": "Feature", "properties": {"id": "MC0056", "name": "limoges beaubreuil", "ordre": 56, "adresse": "Place de Beaubreuil, Beaubreuil, Limoges", "cumul_km": 758.1}, "geometry": {"type": "Point", "coordinates": [1.2901417, 45.8805682]}}, {"type": "Feature", "properties": {"id": "MC0057", "name": "limoges casseaux", "ordre": 57, "adresse": "Place de Beaubreuil, Beaubreuil, Limoges", "cumul_km": 758.1}, "geometry": {"type": "Point", "coordinates": [1.2901417, 45.8805682]}}, {"type": "Feature", "properties": {"id": "MC0058", "name": "limoges nexon", "ordre": 58, "adresse": "Place de Beaubreuil, Beaubreuil, Limoges", "cumul_km": 758.1}, "geometry": {"type": "Point", "coordinates": [1.2901417, 45.8805682]}}, {"type": "Feature", "properties": {"id": "MC0059", "name": "limoges palais des sports", "ordre": 59, "adresse": "Place de Beaubreuil, Beaubreuil, Limoges", "cumul_km": 758.1}, "geometry": {"type": "Point", "coordinates": [1.2901417, 45.8805682]}}, {"type": "Feature", "properties": {"id": "MC0060", "name": "limoges le vigen", "ordre": 60, "adresse": "Rue de la Tour, Zone Commerciale Boisseuil Le Vigen, Le Petit l'Age", "cumul_km": 771.9}, "geometry": {"type": "Point", "coordinates": [1.3058665, 45.7811461]}}, {"type": "Feature", "properties": {"id": "MC0061", "name": "la garde", "ordre": 61, "adresse": "8, Avenue de l'Abattoir, La Garde", "cumul_km": 778.1}, "geometry": {"type": "Point", "coordinates": [1.2577682, 45.8110968]}}, {"type": "Feature", "properties": {"id": "MC0062", "name": "la garde grand var", "ordre": 62, "adresse": "8, Avenue de l'Abattoir, La Garde", "cumul_km": 778.1}, "geometry": {"type": "Point", "coordinates": [1.2577682, 45.8110968]}}, {"type": "Feature", "properties": {"id": "MC0063", "name": "aixe sur vienne", "ordre": 63, "adresse": "Rue de Cognac, Parc d'activités du Grand Rieux, L'Atelier", "cumul_km": 791.7}, "geometry": {"type": "Point", "coordinates": [1.1175543, 45.7996572]}}, {"type": "Feature", "properties": {"id": "MC0064", "name": "saint junien", "ordre": 64, "adresse": "Avenue Nelson Mandela, Saint-Junien, Rochechouart", "cumul_km": 814.8}, "geometry": {"type": "Point", "coordinates": [0.9212416, 45.8969184]}}, {"type": "Feature", "properties": {"id": "MC0065", "name": "saint yrieix la perche", "ordre": 65, "adresse": "3, Avenue Général Charles de Gaulle, La Bachellerie-du-Nord", "cumul_km": 873.8}, "geometry": {"type": "Point", "coordinates": [1.2074083, 45.5182561]}}, {"type": "Feature", "properties": {"id": "MC0066", "name": "objat", "ordre": 66, "adresse": "38, Avenue Raymond Poincaré, La Pontherie", "cumul_km": 915.3}, "geometry": {"type": "Point", "coordinates": [1.4141435, 45.2551929]}}, {"type": "Feature", "properties": {"id": "MC0067", "name": "terrasson lavilledieu", "ordre": 67, "adresse": "Rue André Citroën, Zone industrielle Le Coutal, La Borie Haute", "cumul_km": 934.7}, "geometry": {"type": "Point", "coordinates": [1.3253363, 45.1287671]}}, {"type": "Feature", "properties": {"id": "MC0068", "name": "brive la gaillarde", "ordre": 68, "adresse": "1, Avenue Cyprien Faurie, Aux Poynes", "cumul_km": 950.1}, "geometry": {"type": "Point", "coordinates": [1.4818015, 45.1466401]}}, {"type": "Feature", "properties": {"id": "MC0069", "name": "malemort", "ordre": 69, "adresse": "Accès McDrive, Malemort-sur-Corrèze, Malemort", "cumul_km": 958.4}, "geometry": {"type": "Point", "coordinates": [1.5609645, 45.1689958]}}, {"type": "Feature", "properties": {"id": "MC0070", "name": "tulle", "ordre": 70, "adresse": "Route de Brive, Le Trech, Tulle", "cumul_km": 981.1}, "geometry": {"type": "Point", "coordinates": [1.7613271, 45.2538991]}}, {"type": "Feature", "properties": {"id": "MC0071", "name": "ussel", "ordre": 71, "adresse": "D 1089, Les Salles, Mamegout", "cumul_km": 1046.3}, "geometry": {"type": "Point", "coordinates": [2.3002894, 45.5363591]}}, {"type": "Feature", "properties": {"id": "MC0072", "name": "montlucon", "ordre": 72, "adresse": "Rue Pablo Picasso, Montluçon, Allier", "cumul_km": 1161.6}, "geometry": {"type": "Point", "coordinates": [2.6023406, 46.3460389]}}, {"type": "Feature", "properties": {"id": "MC0073", "name": "saint victor", "ordre": 73, "adresse": "Rue Roger Walkowiak, Passat, Saint-Victor", "cumul_km": 1166.3}, "geometry": {"type": "Point", "coordinates": [2.5842234, 46.3780748]}}, {"type": "Feature", "properties": {"id": "MC0074", "name": "saint amand montrond", "ordre": 74, "adresse": "82, Avenue du Général de Gaulle, Saint-Amand-Montrond", "cumul_km": 1216.1}, "geometry": {"type": "Point", "coordinates": [2.4921478, 46.7337218]}}, {"type": "Feature", "properties": {"id": "MC0075", "name": "avermes", "ordre": 75, "adresse": "Route de Paris, La Rigollée, Avermes", "cumul_km": 1296.8}, "geometry": {"type": "Point", "coordinates": [3.3168168, 46.5871898]}}, {"type": "Feature", "properties": {"id": "MC0076", "name": "moulins", "ordre": 76, "adresse": "McDrive, Nomazy, Moulins", "cumul_km": 1303.7}, "geometry": {"type": "Point", "coordinates": [3.3431415, 46.5404942]}}, {"type": "Feature", "properties": {"id": "MC0077", "name": "vichy les ailes", "ordre": 77, "adresse": "Avenue Georges Pompidou, ZA Carmone, Chatet", "cumul_km": 1337.3}, "geometry": {"type": "Point", "coordinates": [3.2969434, 46.298501]}}, {"type": "Feature", "properties": {"id": "MC0078", "name": "saint pourcain sur sioule", "ordre": 78, "adresse": "Avenue Georges Pompidou, ZA Carmone, Chatet", "cumul_km": 1337.3}, "geometry": {"type": "Point", "coordinates": [3.2969434, 46.298501]}}, {"type": "Feature", "properties": {"id": "MC0079", "name": "gannat", "ordre": 79, "adresse": "Avenue des Portes Occitanes, Gannat, Vichy", "cumul_km": 1368.8}, "geometry": {"type": "Point", "coordinates": [3.2005425, 46.0800071]}}, {"type": "Feature", "properties": {"id": "MC0080", "name": "mozac", "ordre": 80, "adresse": "Avenue Jean Jaurès, Mozac, Riom", "cumul_km": 1397.7}, "geometry": {"type": "Point", "coordinates": [3.074047, 45.8897972]}}, {"type": "Feature", "properties": {"id": "MC0081", "name": "gerzat", "ordre": 81, "adresse": "L'Arverne, Gerzat, Clermont-Ferrand", "cumul_km": 1410.1}, "geometry": {"type": "Point", "coordinates": [3.1557144, 45.8197945]}}, {"type": "Feature", "properties": {"id": "MC0082", "name": "clermont le brezet", "ordre": 82, "adresse": "Projet Inspire Ligne C, Zone industrielle du Brézet, Le Brézet", "cumul_km": 1414.7}, "geometry": {"type": "Point", "coordinates": [3.1387822, 45.788742]}}, {"type": "Feature", "properties": {"id": "MC0083", "name": "clermont ferrand centre", "ordre": 83, "adresse": "Rue de l'Hermitage, Parc Technologique de La Pardieu, La Pardieu", "cumul_km": 1418.3}, "geometry": {"type": "Point", "coordinates": [3.1274007, 45.7642101]}}, {"type": "Feature", "properties": {"id": "MC0084", "name": "clermont ferrand pardieu", "ordre": 84, "adresse": "Rue de l'Hermitage, Parc Technologique de La Pardieu, La Pardieu", "cumul_km": 1418.3}, "geometry": {"type": "Point", "coordinates": [3.1274007, 45.7642101]}}, {"type": "Feature", "properties": {"id": "MC0085", "name": "aubiere", "ordre": 85, "adresse": "34, Avenue du Roussillon, ZAC de Malmouche", "cumul_km": 1420.2}, "geometry": {"type": "Point", "coordinates": [3.1322688, 45.7508117]}}, {"type": "Feature", "properties": {"id": "MC0086", "name": "cournon", "ordre": 86, "adresse": "Avenue du Maréchal Leclerc, Cournon-d'Auvergne, Clermont-Ferrand", "cumul_km": 1424.4}, "geometry": {"type": "Point", "coordinates": [3.1731934, 45.7399529]}}, {"type": "Feature", "properties": {"id": "MC0087", "name": "lempdes", "ordre": 87, "adresse": "62, Avenue de l'Europe, Lempdes", "cumul_km": 1429.6}, "geometry": {"type": "Point", "coordinates": [3.1869336, 45.7764203]}}, {"type": "Feature", "properties": {"id": "MC0088", "name": "bellerive sur allier", "ordre": 88, "adresse": "138, Avenue de Vichy, Bellerive-sur-Allier", "cumul_km": 1482.0}, "geometry": {"type": "Point", "coordinates": [3.4029552, 46.1252194]}}, {"type": "Feature", "properties": {"id": "MC0089", "name": "vichy centre ville", "ordre": 89, "adresse": "Allée des Ailes, Zone commerciale des Ailes, Vichy", "cumul_km": 1484.6}, "geometry": {"type": "Point", "coordinates": [3.4156651, 46.142562]}}, {"type": "Feature", "properties": {"id": "MC0090", "name": "riorges", "ordre": 90, "adresse": "Boulevard Ouest, Riorges, Roanne", "cumul_km": 1547.3}, "geometry": {"type": "Point", "coordinates": [4.0556755, 46.0455521]}}, {"type": "Feature", "properties": {"id": "MC0091", "name": "mably", "ordre": 91, "adresse": "Route de Paris, Mably, Roanne", "cumul_km": 1550.2}, "geometry": {"type": "Point", "coordinates": [4.0553456, 46.0664784]}}, {"type": "Feature", "properties": {"id": "MC0092", "name": "roanne", "ordre": 92, "adresse": "Route de Paris, Mably, Roanne", "cumul_km": 1550.2}, "geometry": {"type": "Point", "coordinates": [4.0553456, 46.0664784]}}, {"type": "Feature", "properties": {"id": "MC0093", "name": "chauffailles", "ordre": 93, "adresse": "Route des Étangs, Parc d'Activités \"La Bruyère\", Maisonneuve", "cumul_km": 1581.5}, "geometry": {"type": "Point", "coordinates": [4.3122813, 46.208038]}}, {"type": "Feature", "properties": {"id": "MC0094", "name": "thizy les bourgs 2", "ordre": 94, "adresse": "D 504, La Roche, Bourg-de-Thizy", "cumul_km": 1605.4}, "geometry": {"type": "Point", "coordinates": [4.2869847, 46.0355652]}}, {"type": "Feature", "properties": {"id": "MC0095", "name": "tarare", "ordre": 95, "adresse": "Boulevard Robert Michon, Chalosset, Tarare", "cumul_km": 1630.5}, "geometry": {"type": "Point", "coordinates": [4.445038, 45.890325]}}, {"type": "Feature", "properties": {"id": "MC0096", "name": "feurs", "ordre": 96, "adresse": "Rue du Grain, Feurs, Montbrison", "cumul_km": 1662.1}, "geometry": {"type": "Point", "coordinates": [4.2266106, 45.7197545]}}, {"type": "Feature", "properties": {"id": "MC0097", "name": "montbrison", "ordre": 97, "adresse": "Avenue de Saint-Étienne, Moingt, Montbrison", "cumul_km": 1684.3}, "geometry": {"type": "Point", "coordinates": [4.0825616, 45.5941008]}}, {"type": "Feature", "properties": {"id": "MC0098", "name": "ambert", "ordre": 98, "adresse": "40 bis, Avenue Emmanuel Chabrier, Le Petit Cheix", "cumul_km": 1718.2}, "geometry": {"type": "Point", "coordinates": [3.7378267, 45.5447836]}}, {"type": "Feature", "properties": {"id": "MC0099", "name": "thiers les varennes", "ordre": 99, "adresse": "D 906, Ville-Basse de Thiers, Sauvage Billetoux", "cumul_km": 1764.6}, "geometry": {"type": "Point", "coordinates": [3.5076131, 45.8402433]}}, {"type": "Feature", "properties": {"id": "MC0100", "name": "chignat vertaizon", "ordre": 100, "adresse": "Avenue Jacques Duclos, Chignat, Vertaizon", "cumul_km": 1787.2}, "geometry": {"type": "Point", "coordinates": [3.2861536, 45.7857221]}}, {"type": "Feature", "properties": {"id": "MC0101", "name": "les martres de veyre", "ordre": 101, "adresse": "Avenue Commandant Berrier, Les Martres-de-Veyre, Clermont-Ferrand", "cumul_km": 1803.7}, "geometry": {"type": "Point", "coordinates": [3.1942178, 45.6843773]}}, {"type": "Feature", "properties": {"id": "MC0102", "name": "issoire", "ordre": 102, "adresse": "Rue Jean Bigot, Le Petit Mas, Issoire", "cumul_km": 1823.4}, "geometry": {"type": "Point", "coordinates": [3.2669972, 45.5513958]}}, {"type": "Feature", "properties": {"id": "MC0103", "name": "brioude", "ordre": 103, "adresse": "Rue Hélène Bouchet, Brioude, Haute-Loire", "cumul_km": 1857.6}, "geometry": {"type": "Point", "coordinates": [3.3726771, 45.3145293]}}, {"type": "Feature", "properties": {"id": "MC0104", "name": "andelat", "ordre": 104, "adresse": "D 44, ZA de Montplain, Andelat", "cumul_km": 1906.1}, "geometry": {"type": "Point", "coordinates": [3.0635607, 45.0381615]}}, {"type": "Feature", "properties": {"id": "MC0105", "name": "aurillac", "ordre": 105, "adresse": "Promenade de Bocholt, Marmiers, Aurillac", "cumul_km": 1969.1}, "geometry": {"type": "Point", "coordinates": [2.4417872, 44.9134895]}}, {"type": "Feature", "properties": {"id": "MC0106", "name": "aurillac la sabliere", "ordre": 106, "adresse": "Carrefour Hildegarde de Bingen, ZAC de la Sablière, Aurillac", "cumul_km": 1973.7}, "geometry": {"type": "Point", "coordinates": [2.4025543, 44.8949877]}}, {"type": "Feature", "properties": {"id": "MC0107", "name": "bretenoux", "ordre": 107, "adresse": "14, Rue des Docteurs Robin et Madec, Bretenoux", "cumul_km": 2028.4}, "geometry": {"type": "Point", "coordinates": [1.8438835, 44.9115533]}}, {"type": "Feature", "properties": {"id": "MC0108", "name": "sarlat", "ordre": 108, "adresse": "Route de l'Abbé Breuil, Le Roc Bédière, Pont-Saint-Sacerdos", "cumul_km": 2090.2}, "geometry": {"type": "Point", "coordinates": [1.2106553, 44.9025571]}}, {"type": "Feature", "properties": {"id": "MC0109", "name": "perigueux", "ordre": 109, "adresse": "Avenue Michel Grandou, Centre commercial la Feuilleraie, Les Jalots", "cumul_km": 2148.9}, "geometry": {"type": "Point", "coordinates": [0.7655351, 45.1895715]}}, {"type": "Feature", "properties": {"id": "MC0110", "name": "notre dame de sanilhac", "ordre": 110, "adresse": "Route du Cerf, Cré@vallée Sud, Notre-Dame-de-Sanilhac", "cumul_km": 2158.4}, "geometry": {"type": "Point", "coordinates": [0.7011548, 45.1383032]}}, {"type": "Feature", "properties": {"id": "MC0111", "name": "marsac", "ordre": 111, "adresse": "Avenue Louis Suder, Zone d'activité économique Péri Ouest, Marsac-sur-l'Isle", "cumul_km": 2167.1}, "geometry": {"type": "Point", "coordinates": [0.660345, 45.194694]}}, {"type": "Feature", "properties": {"id": "MC0112", "name": "riberac", "ordre": 112, "adresse": "Rue du Commandant Fernand Pichardie, Toutifaut, Ribérac", "cumul_km": 2198.7}, "geometry": {"type": "Point", "coordinates": [0.3462254, 45.2539135]}}, {"type": "Feature", "properties": {"id": "MC0113", "name": "montpon menesterol", "ordre": 113, "adresse": "Avenue Georges Pompidou, Les Moulineaux, Montpon", "cumul_km": 2238.0}, "geometry": {"type": "Point", "coordinates": [0.1430928, 45.0069165]}}, {"type": "Feature", "properties": {"id": "MC0114", "name": "coutras", "ordre": 114, "adresse": "Zone Commerciale l'Atelier, Les Landes, Coutras", "cumul_km": 2263.7}, "geometry": {"type": "Point", "coordinates": [-0.1121895, 45.0521576]}}, {"type": "Feature", "properties": {"id": "MC0115", "name": "libourne", "ordre": 115, "adresse": "Mc Drive, La Bordette, Libourne", "cumul_km": 2284.8}, "geometry": {"type": "Point", "coordinates": [-0.2405515, 44.9285646]}}, {"type": "Feature", "properties": {"id": "MC0116", "name": "libourne nord", "ordre": 116, "adresse": "Mc Drive, La Bordette, Libourne", "cumul_km": 2284.8}, "geometry": {"type": "Point", "coordinates": [-0.2405515, 44.9285646]}}, {"type": "Feature", "properties": {"id": "MC0117", "name": "saint andre de cubzac", "ordre": 117, "adresse": "D 137, Saint-André-de-Cubzac, Blaye", "cumul_km": 2306.8}, "geometry": {"type": "Point", "coordinates": [-0.4372772, 45.0057499]}}, {"type": "Feature", "properties": {"id": "MC0118", "name": "cavignac", "ordre": 118, "adresse": "Avenue de Paris, Péricou, Cavignac", "cumul_km": 2322.3}, "geometry": {"type": "Point", "coordinates": [-0.3798678, 45.1110033]}}, {"type": "Feature", "properties": {"id": "MC0119", "name": "saint martin lacaussade", "ordre": 119, "adresse": "D 669E5, Zone Commerciale Boisredon - La Gruppe, Saint-Martin-Lacaussade", "cumul_km": 2347.9}, "geometry": {"type": "Point", "coordinates": [-0.6417396, 45.129372]}}, {"type": "Feature", "properties": {"id": "MC0120", "name": "lesparre medoc", "ordre": 120, "adresse": "67, Cours du Général de Gaulle, Eyran", "cumul_km": 2386.2}, "geometry": {"type": "Point", "coordinates": [-0.9399457, 45.3107804]}}, {"type": "Feature", "properties": {"id": "MC0121", "name": "le pian medoc", "ordre": 121, "adresse": "Route de Pauillac, Zone commerciale Les Portes du Médoc, Le Poujeau", "cumul_km": 2443.7}, "geometry": {"type": "Point", "coordinates": [-0.6294206, 44.9560281]}}, {"type": "Feature", "properties": {"id": "MC0122", "name": "blanquefort", "ordre": 122, "adresse": "Avenue du XI Novembre, Marpuch, La Landille", "cumul_km": 2449.9}, "geometry": {"type": "Point", "coordinates": [-0.6242872, 44.9114279]}}, {"type": "Feature", "properties": {"id": "MC0123", "name": "bordeaux lac", "ordre": 123, "adresse": "Rond-Point Marie Fel, Le Lac, Bordeaux Maritime", "cumul_km": 2456.8}, "geometry": {"type": "Point", "coordinates": [-0.5609181, 44.8888702]}}, {"type": "Feature", "properties": {"id": "MC0124", "name": "sainte eulalie sortie 43", "ordre": 124, "adresse": "L'Aquitaine, Sainte-Eulalie, Bordeaux", "cumul_km": 2464.2}, "geometry": {"type": "Point", "coordinates": [-0.4897231, 44.907852]}}, {"type": "Feature", "properties": {"id": "MC0125", "name": "bordeaux sainte eulalie", "ordre": 125, "adresse": "D 911, Sainte-Eulalie, Bordeaux", "cumul_km": 2465.0}, "geometry": {"type": "Point", "coordinates": [-0.4859596, 44.9129813]}}, {"type": "Feature", "properties": {"id": "MC0126", "name": "montussan", "ordre": 126, "adresse": "Route de la Lande, Montussan, Bordeaux", "cumul_km": 2472.7}, "geometry": {"type": "Point", "coordinates": [-0.4286525, 44.8744383]}}, {"type": "Feature", "properties": {"id": "MC0127", "name": "la sauve", "ordre": 127, "adresse": "1, Route de Créon, Fauquet", "cumul_km": 2489.5}, "geometry": {"type": "Point", "coordinates": [-0.3349549, 44.772227]}}, {"type": "Feature", "properties": {"id": "MC0128", "name": "podensac", "ordre": 128, "adresse": "Cours du Maréchal Foch, Podensac, Langon", "cumul_km": 2505.7}, "geometry": {"type": "Point", "coordinates": [-0.3676587, 44.657]}}, {"type": "Feature", "properties": {"id": "MC0129", "name": "cadaujac", "ordre": 129, "adresse": "Chemin de la Morelle, ZAC de Martillac, Cadaujac", "cumul_km": 2524.1}, "geometry": {"type": "Point", "coordinates": [-0.5293638, 44.7234175]}}, {"type": "Feature", "properties": {"id": "MC0130", "name": "villenave d’ornon", "ordre": 130, "adresse": "Avenue du Maréchal Leclerc, Le Brucat, Villenave-d'Ornon", "cumul_km": 2532.6}, "geometry": {"type": "Point", "coordinates": [-0.5709368, 44.7779566]}}, {"type": "Feature", "properties": {"id": "MC0131", "name": "villenave d’ornon", "ordre": 131, "adresse": "Avenue du Maréchal Leclerc, Le Brucat, Villenave-d'Ornon", "cumul_km": 2532.6}, "geometry": {"type": "Point", "coordinates": [-0.5709368, 44.7779566]}}, {"type": "Feature", "properties": {"id": "MC0132", "name": "begles", "ordre": 132, "adresse": "Mc Drive, Hourcade, Bègles", "cumul_km": 2537.1}, "geometry": {"type": "Point", "coordinates": [-0.5299506, 44.7934642]}}, {"type": "Feature", "properties": {"id": "MC0133", "name": "floirac", "ordre": 133, "adresse": "Rue de la Gabarre, La Souys, Floirac", "cumul_km": 2541.1}, "geometry": {"type": "Point", "coordinates": [-0.5196654, 44.8213782]}}, {"type": "Feature", "properties": {"id": "MC0134", "name": "bordeaux lormont", "ordre": 134, "adresse": "Avenue Carnot, Centre commercial des Quatre Pavillons, Les Quatre Pavillons", "cumul_km": 2547.3}, "geometry": {"type": "Point", "coordinates": [-0.5142644, 44.865969]}}, {"type": "Feature", "properties": {"id": "MC0135", "name": "bordeaux port autonome", "ordre": 135, "adresse": "Quai des Caps, Bordeaux, Port de la Lune", "cumul_km": 2552.3}, "geometry": {"type": "Point", "coordinates": [-0.5650559, 44.870013]}}, {"type": "Feature", "properties": {"id": "MC0136", "name": "eysines", "ordre": 136, "adresse": "1, Allée de l'Europe, Zone commerciale Cantinolle", "cumul_km": 2562.5}, "geometry": {"type": "Point", "coordinates": [-0.6648759, 44.8922499]}}, {"type": "Feature", "properties": {"id": "MC0137", "name": "bordeaux saint medard en jalles", "ordre": 137, "adresse": "Avenue Descartes, Berlincan, Saint-Médard-en-Jalles", "cumul_km": 2565.4}, "geometry": {"type": "Point", "coordinates": [-0.692363, 44.884386]}}, {"type": "Feature", "properties": {"id": "MC0138", "name": "merignac sortie 10", "ordre": 138, "adresse": "Avenue de Magudas, Le Chut, Capeyron", "cumul_km": 2570.8}, "geometry": {"type": "Point", "coordinates": [-0.6537197, 44.8564465]}}, {"type": "Feature", "properties": {"id": "MC0139", "name": "merignac sortie 9", "ordre": 139, "adresse": "Avenue de Magudas, Le Chut, Capeyron", "cumul_km": 2570.8}, "geometry": {"type": "Point", "coordinates": [-0.6537197, 44.8564465]}}, {"type": "Feature", "properties": {"id": "MC0140", "name": "merignac soleil", "ordre": 140, "adresse": "rue Germaine Tillion, Centre commercial Mérignac Soleil, Les Eyquems", "cumul_km": 2574.4}, "geometry": {"type": "Point", "coordinates": [-0.6527941, 44.8302005]}}, {"type": "Feature", "properties": {"id": "MC0141", "name": "bordeaux medoc", "ordre": 141, "adresse": "Boulevard du Président Wilson, Barrière du Médoc, Bordeaux", "cumul_km": 2581.0}, "geometry": {"type": "Point", "coordinates": [-0.5938061, 44.853802]}}, {"type": "Feature", "properties": {"id": "MC0142", "name": "bordeaux sainte catherine centre", "ordre": 142, "adresse": "Promenade Sainte-Catherine, Bordeaux, Port de la Lune", "cumul_km": 2583.7}, "geometry": {"type": "Point", "coordinates": [-0.5752091, 44.8398987]}}, {"type": "Feature", "properties": {"id": "MC0143", "name": "bordeaux victoire", "ordre": 143, "adresse": "Place de la Victoire, Bordeaux, Port de la Lune", "cumul_km": 2584.9}, "geometry": {"type": "Point", "coordinates": [-0.5724249, 44.8312676]}}, {"type": "Feature", "properties": {"id": "MC0144", "name": "bordeaux thiers", "ordre": 144, "adresse": "40, Avenue Thiers, Bastide Niel", "cumul_km": 2587.0}, "geometry": {"type": "Point", "coordinates": [-0.5574229, 44.8419938]}}, {"type": "Feature", "properties": {"id": "MC0145", "name": "saint jean d’illac", "ordre": 145, "adresse": "Rue Charles Domercq, Bordeaux, Port de la Lune", "cumul_km": 2589.2}, "geometry": {"type": "Point", "coordinates": [-0.5564635, 44.825782]}}, {"type": "Feature", "properties": {"id": "MC0146", "name": "saint jean d’illac", "ordre": 146, "adresse": "Rue Charles Domercq, Bordeaux, Port de la Lune", "cumul_km": 2589.2}, "geometry": {"type": "Point", "coordinates": [-0.5564635, 44.825782]}}, {"type": "Feature", "properties": {"id": "MC0147", "name": "bordeaux barriere de toulouse", "ordre": 147, "adresse": "4, Route de Toulouse, Barrière de Toulouse", "cumul_km": 2591.5}, "geometry": {"type": "Point", "coordinates": [-0.5724796, 44.8138589]}}, {"type": "Feature", "properties": {"id": "MC0148", "name": "thouars", "ordre": 148, "adresse": "Cours de la Libération, Thouars, Talence", "cumul_km": 2594.4}, "geometry": {"type": "Point", "coordinates": [-0.5955425, 44.80025]}}, {"type": "Feature", "properties": {"id": "MC0149", "name": "talence universite", "ordre": 149, "adresse": "Cours de la Libération, Thouars, Talence", "cumul_km": 2594.4}, "geometry": {"type": "Point", "coordinates": [-0.5955425, 44.80025]}}, {"type": "Feature", "properties": {"id": "MC0150", "name": "bordeaux pessac", "ordre": 150, "adresse": "1, Avenue de la Tuileranne, Saige", "cumul_km": 2598.9}, "geometry": {"type": "Point", "coordinates": [-0.6365445, 44.7862757]}}, {"type": "Feature", "properties": {"id": "MC0151", "name": "biganos", "ordre": 151, "adresse": "D 3E13, Centre commercial Facture Nord, Biganos", "cumul_km": 2636.6}, "geometry": {"type": "Point", "coordinates": [-0.9582739, 44.6363682]}}, {"type": "Feature", "properties": {"id": "MC0152", "name": "la teste de buch ocean", "ordre": 152, "adresse": "N 250, La Teste-de-Buch, Arcachon", "cumul_km": 2654.2}, "geometry": {"type": "Point", "coordinates": [-1.1360196, 44.6166085]}}, {"type": "Feature", "properties": {"id": "MC0153", "name": "la teste de buch bld de cazaux", "ordre": 153, "adresse": "N 250, La Teste-de-Buch, Arcachon", "cumul_km": 2654.2}, "geometry": {"type": "Point", "coordinates": [-1.1360196, 44.6166085]}}, {"type": "Feature", "properties": {"id": "MC0154", "name": "biscarrosse", "ordre": 154, "adresse": "Avenue de Laouadie, Laouadie, Biscarrosse", "cumul_km": 2682.7}, "geometry": {"type": "Point", "coordinates": [-1.1672994, 44.4112347]}}, {"type": "Feature", "properties": {"id": "MC0155", "name": "mimizan", "ordre": 155, "adresse": "Avenue de Bordeaux, Moulin Neuf, Mimizan", "cumul_km": 2711.5}, "geometry": {"type": "Point", "coordinates": [-1.2197309, 44.2061644]}}, {"type": "Feature", "properties": {"id": "MC0156", "name": "castets", "ordre": 156, "adresse": "Impasse du Basile, ZAC de Cazalieu, Castets", "cumul_km": 2758.4}, "geometry": {"type": "Point", "coordinates": [-1.1385089, 43.870627]}}, {"type": "Feature", "properties": {"id": "MC0157", "name": "saint paul les dax", "ordre": 157, "adresse": "1, Avenue de la Liberté, Saint-Paul-lès-Dax", "cumul_km": 2780.5}, "geometry": {"type": "Point", "coordinates": [-1.0506996, 43.7234882]}}, {"type": "Feature", "properties": {"id": "MC0158", "name": "dax", "ordre": 158, "adresse": "1, Avenue de la Liberté, Saint-Paul-lès-Dax", "cumul_km": 2780.5}, "geometry": {"type": "Point", "coordinates": [-1.0506996, 43.7234882]}}, {"type": "Feature", "properties": {"id": "MC0159", "name": "saint vincent de tyrosse", "ordre": 159, "adresse": "Avenue du Pont de Burry, Casablanca, Laste", "cumul_km": 2804.8}, "geometry": {"type": "Point", "coordinates": [-1.282627, 43.6688444]}}, {"type": "Feature", "properties": {"id": "MC0160", "name": "tarnos", "ordre": 160, "adresse": "Boulevard Jacques Duclos, Lapurdi, Tarnos", "cumul_km": 2831.4}, "geometry": {"type": "Point", "coordinates": [-1.4633535, 43.5273843]}}, {"type": "Feature", "properties": {"id": "MC0161", "name": "anglet bab", "ordre": 161, "adresse": "78, Avenue de Bayonne, Lapurdi", "cumul_km": 2838.8}, "geometry": {"type": "Point", "coordinates": [-1.503365, 43.482628]}}, {"type": "Feature", "properties": {"id": "MC0162", "name": "anglet la barre", "ordre": 162, "adresse": "78, Avenue de Bayonne, Lapurdi", "cumul_km": 2838.8}, "geometry": {"type": "Point", "coordinates": [-1.503365, 43.482628]}}, {"type": "Feature", "properties": {"id": "MC0163", "name": "anglet", "ordre": 163, "adresse": "78, Avenue de Bayonne, Lapurdi", "cumul_km": 2838.8}, "geometry": {"type": "Point", "coordinates": [-1.503365, 43.482628]}}, {"type": "Feature", "properties": {"id": "MC0164", "name": "bayonne saint esprit", "ordre": 164, "adresse": "Rue d'Arrousets, Lapurdi, Saint-Frédéric", "cumul_km": 2844.0}, "geometry": {"type": "Point", "coordinates": [-1.4527768, 43.4924997]}}, {"type": "Feature", "properties": {"id": "MC0165", "name": "bayonne ikéa", "ordre": 165, "adresse": "Rue d'Arrousets, Lapurdi, Saint-Frédéric", "cumul_km": 2844.0}, "geometry": {"type": "Point", "coordinates": [-1.4527768, 43.4924997]}}, {"type": "Feature", "properties": {"id": "MC0166", "name": "bayonne ikéa", "ordre": 166, "adresse": "Rue d'Arrousets, Lapurdi, Saint-Frédéric", "cumul_km": 2844.0}, "geometry": {"type": "Point", "coordinates": [-1.4527768, 43.4924997]}}, {"type": "Feature", "properties": {"id": "MC0167", "name": "peyrehorade", "ordre": 167, "adresse": "Route de Bayonne, Peyrehorade, Dax", "cumul_km": 2877.1}, "geometry": {"type": "Point", "coordinates": [-1.1327815, 43.5537339]}}, {"type": "Feature", "properties": {"id": "MC0168", "name": "orthez", "ordre": 168, "adresse": "Rue du Viaduc, Les Sources, Les Maures", "cumul_km": 2913.5}, "geometry": {"type": "Point", "coordinates": [-0.7796272, 43.4877967]}}, {"type": "Feature", "properties": {"id": "MC0169", "name": "mourenx", "ordre": 169, "adresse": "Avenue Charles Moureu, Mourenx, Pau", "cumul_km": 2935.7}, "geometry": {"type": "Point", "coordinates": [-0.6258392, 43.3722001]}}, {"type": "Feature", "properties": {"id": "MC0170", "name": "lons lescar", "ordre": 170, "adresse": "Boulevard Charles de Gaulle, Lons, Pau", "cumul_km": 2957.3}, "geometry": {"type": "Point", "coordinates": [-0.4237134, 43.3176538]}}, {"type": "Feature", "properties": {"id": "MC0171", "name": "mazeres lezons", "ordre": 171, "adresse": "D 802, Mazères-Lezons, Pau", "cumul_km": 2965.6}, "geometry": {"type": "Point", "coordinates": [-0.3602079, 43.2793109]}}, {"type": "Feature", "properties": {"id": "MC0172", "name": "pau nobel", "ordre": 172, "adresse": "Avenue Alfred Nobel, Les Allées - Trespoey - Le Buisson, Pau", "cumul_km": 2970.3}, "geometry": {"type": "Point", "coordinates": [-0.3319779, 43.3068577]}}, {"type": "Feature", "properties": {"id": "MC0173", "name": "pau leclerc", "ordre": 173, "adresse": "Allée François Truffaut, Berlioz - Lau - Péboué, Pau", "cumul_km": 2973.3}, "geometry": {"type": "Point", "coordinates": [-0.3589545, 43.3156603]}}, {"type": "Feature", "properties": {"id": "MC0174", "name": "serres castet", "ordre": 174, "adresse": "Route d'Uzein, ZA du Pont-Long, Serres-Castet", "cumul_km": 2980.2}, "geometry": {"type": "Point", "coordinates": [-0.3860931, 43.3616074]}}, {"type": "Feature", "properties": {"id": "MC0175", "name": "hagetmau", "ordre": 175, "adresse": "Route d'Orthez, Lotissement Hameau du Louts, Hagetmau", "cumul_km": 3024.6}, "geometry": {"type": "Point", "coordinates": [-0.6130487, 43.6380077]}}, {"type": "Feature", "properties": {"id": "MC0176", "name": "mont de marsan rocade", "ordre": 176, "adresse": "Rocade Est, Mont-de-Marsan, Landes", "cumul_km": 3060.7}, "geometry": {"type": "Point", "coordinates": [-0.4651308, 43.8774856]}}, {"type": "Feature", "properties": {"id": "MC0177", "name": "mont de marsan", "ordre": 177, "adresse": "Rocade Est, Mont-de-Marsan, Landes", "cumul_km": 3060.7}, "geometry": {"type": "Point", "coordinates": [-0.4651308, 43.8774856]}}, {"type": "Feature", "properties": {"id": "MC0178", "name": "langon", "ordre": 178, "adresse": "Boulevard Pierre Lagorce, Centre Moléon, Langon", "cumul_km": 3154.8}, "geometry": {"type": "Point", "coordinates": [-0.2545925, 44.5426669]}}, {"type": "Feature", "properties": {"id": "MC0179", "name": "la reole", "ordre": 179, "adresse": "Route Nationale 113, A Bareille, La Réole", "cumul_km": 3173.8}, "geometry": {"type": "Point", "coordinates": [-0.0693818, 44.5835989]}}, {"type": "Feature", "properties": {"id": "MC0180", "name": "port sainte foy", "ordre": 180, "adresse": "Avenue des Quatre Ormeaux, ZAE Les Quatre Ormeaux, Port-Sainte-Foy-et-Ponchapt", "cumul_km": 3217.3}, "geometry": {"type": "Point", "coordinates": [0.1789186, 44.8448155]}}, {"type": "Feature", "properties": {"id": "MC0181", "name": "bergerac la cavaille", "ordre": 181, "adresse": "Piste Poids Lourds, La Cavaille, Bergerac", "cumul_km": 3243.7}, "geometry": {"type": "Point", "coordinates": [0.44892, 44.8350118]}}, {"type": "Feature", "properties": {"id": "MC0182", "name": "creysse bergerac", "ordre": 182, "adresse": "D 660, Creysse, Bergerac", "cumul_km": 3252.2}, "geometry": {"type": "Point", "coordinates": [0.5333614, 44.8499226]}}, {"type": "Feature", "properties": {"id": "MC0183", "name": "marmande", "ordre": 183, "adresse": "Avenue Jean Jaurès, Marmande, Lot-et-Garonne", "cumul_km": 3312.9}, "geometry": {"type": "Point", "coordinates": [0.1412764, 44.5094897]}}, {"type": "Feature", "properties": {"id": "MC0184", "name": "tonneins", "ordre": 184, "adresse": "Allée du 9 Août 1944, Tonneins, Marmande", "cumul_km": 3334.4}, "geometry": {"type": "Point", "coordinates": [0.2966399, 44.3995954]}}, {"type": "Feature", "properties": {"id": "MC0185", "name": "casteljaloux", "ordre": 185, "adresse": "3 a, Rue Henri IV, Lisse", "cumul_km": 3358.9}, "geometry": {"type": "Point", "coordinates": [0.0794309, 44.3139008]}}, {"type": "Feature", "properties": {"id": "MC0186", "name": "nerac", "ordre": 186, "adresse": "175, Route de Bordeaux, Laguillon", "cumul_km": 3392.7}, "geometry": {"type": "Point", "coordinates": [0.3285927, 44.1454096]}}, {"type": "Feature", "properties": {"id": "MC0187", "name": "boe", "ordre": 187, "adresse": "Rue de Fabas, ZAC de Fabas, Boé", "cumul_km": 3423.3}, "geometry": {"type": "Point", "coordinates": [0.6349365, 44.1760572]}}, {"type": "Feature", "properties": {"id": "MC0188", "name": "agen place du pin", "ordre": 188, "adresse": "Rue de la Prune, Agen, Lot-et-Garonne", "cumul_km": 3427.5}, "geometry": {"type": "Point", "coordinates": [0.6265005, 44.2053998]}}, {"type": "Feature", "properties": {"id": "MC0189", "name": "agen sud", "ordre": 189, "adresse": "Rue de la Prune, Agen, Lot-et-Garonne", "cumul_km": 3427.5}, "geometry": {"type": "Point", "coordinates": [0.6265005, 44.2053998]}}, {"type": "Feature", "properties": {"id": "MC0190", "name": "foulayronnes", "ordre": 190, "adresse": "D 13, Le Rouge, Talives", "cumul_km": 3433.2}, "geometry": {"type": "Point", "coordinates": [0.6425737, 44.2453362]}}, {"type": "Feature", "properties": {"id": "MC0191", "name": "bias", "ordre": 191, "adresse": "Avenue Pont des Martinets, Colebrune, Bias", "cumul_km": 3455.4}, "geometry": {"type": "Point", "coordinates": [0.683119, 44.4041582]}}, {"type": "Feature", "properties": {"id": "MC0192", "name": "montayral", "ordre": 192, "adresse": "D 911, Péluzac, Montayral", "cumul_km": 3486.3}, "geometry": {"type": "Point", "coordinates": [0.9746899, 44.4853455]}}, {"type": "Feature", "properties": {"id": "MC0193", "name": "cahors", "ordre": 193, "adresse": "D 820, Lamothe, Cahors", "cumul_km": 3530.9}, "geometry": {"type": "Point", "coordinates": [1.427616, 44.4668924]}}, {"type": "Feature", "properties": {"id": "MC0194", "name": "caussade", "ordre": 194, "adresse": "Rue du Treilhou, L'Issart, Caussade", "cumul_km": 3575.6}, "geometry": {"type": "Point", "coordinates": [1.5255869, 44.1503616]}}, {"type": "Feature", "properties": {"id": "MC0195", "name": "montauban aussonne", "ordre": 195, "adresse": "McDrive, Aussonne, Montauban", "cumul_km": 3596.8}, "geometry": {"type": "Point", "coordinates": [1.3794865, 44.0373818]}}, {"type": "Feature", "properties": {"id": "MC0196", "name": "montauban sapiac", "ordre": 196, "adresse": "McDrive, Sapiac, Moncerat", "cumul_km": 3602.2}, "geometry": {"type": "Point", "coordinates": [1.3560651, 44.0020466]}}, {"type": "Feature", "properties": {"id": "MC0197", "name": "castelsarrasin", "ordre": 197, "adresse": "41, Route de Barraouet, Cité de l'Écluse", "cumul_km": 3628.7}, "geometry": {"type": "Point", "coordinates": [1.1000494, 44.05729]}}, {"type": "Feature", "properties": {"id": "MC0198", "name": "valence d’agen", "ordre": 198, "adresse": "McDrive, Valence d'Agen, Valence", "cumul_km": 3651.6}, "geometry": {"type": "Point", "coordinates": [0.8820068, 44.1114504]}}, {"type": "Feature", "properties": {"id": "MC0199", "name": "valence d’agen", "ordre": 199, "adresse": "McDrive, Valence d'Agen, Valence", "cumul_km": 3651.6}, "geometry": {"type": "Point", "coordinates": [0.8820068, 44.1114504]}}, {"type": "Feature", "properties": {"id": "MC0200", "name": "montech", "ordre": 200, "adresse": "Avenue de la Mouscane, Montech, Montauban", "cumul_km": 3693.2}, "geometry": {"type": "Point", "coordinates": [1.2477647, 43.9634471]}}, {"type": "Feature", "properties": {"id": "MC0201", "name": "fronton", "ordre": 201, "adresse": "Route de Toulouse, Cœur de Vigne, La Bordette", "cumul_km": 3716.4}, "geometry": {"type": "Point", "coordinates": [1.3918928, 43.8311516]}}, {"type": "Feature", "properties": {"id": "MC0202", "name": "saint jory", "ordre": 202, "adresse": "2, Rue du Confluent, Saint-Jory", "cumul_km": 3728.4}, "geometry": {"type": "Point", "coordinates": [1.3669873, 43.7462009]}}, {"type": "Feature", "properties": {"id": "MC0203", "name": "fenouillet", "ordre": 203, "adresse": "Route de Paris, Centre Commercial Fenouillet, Fenouillet", "cumul_km": 3737.4}, "geometry": {"type": "Point", "coordinates": [1.4049087, 43.6868119]}}, {"type": "Feature", "properties": {"id": "MC0204", "name": "toulouse avenue de fronton", "ordre": 204, "adresse": "410, Avenue de Fronton, Croix-Bénite", "cumul_km": 3741.8}, "geometry": {"type": "Point", "coordinates": [1.43191, 43.661478]}}, {"type": "Feature", "properties": {"id": "MC0205", "name": "blagnac grand noble", "ordre": 205, "adresse": "11, Rue Gustave Flaubert, Pinot", "cumul_km": 3748.5}, "geometry": {"type": "Point", "coordinates": [1.3665083, 43.6487324]}}, {"type": "Feature", "properties": {"id": "MC0206", "name": "toulouse blagnac", "ordre": 206, "adresse": "11, Rue Gustave Flaubert, Pinot", "cumul_km": 3748.5}, "geometry": {"type": "Point", "coordinates": [1.3665083, 43.6487324]}}, {"type": "Feature", "properties": {"id": "MC0207", "name": "tournefeuille", "ordre": 207, "adresse": "Chemin Saint-Exupéry, La Briqueterie, Belbèze", "cumul_km": 3756.7}, "geometry": {"type": "Point", "coordinates": [1.3599121, 43.5894119]}}, {"type": "Feature", "properties": {"id": "MC0208", "name": "colomiers", "ordre": 208, "adresse": "2, Allée des Pyrénées, Plein Centre", "cumul_km": 3761.2}, "geometry": {"type": "Point", "coordinates": [1.3307891, 43.6134498]}}, {"type": "Feature", "properties": {"id": "MC0209", "name": "colomiers perget", "ordre": 209, "adresse": "Impasse du Loudet, Le Perget, Colomiers", "cumul_km": 3763.9}, "geometry": {"type": "Point", "coordinates": [1.3051935, 43.607206]}}, {"type": "Feature", "properties": {"id": "MC0210", "name": "plaisance du touch", "ordre": 210, "adresse": "Route de Toulouse, Bernadet, Plaisance-du-Touch", "cumul_km": 3768.9}, "geometry": {"type": "Point", "coordinates": [1.3109048, 43.5707775]}}, {"type": "Feature", "properties": {"id": "MC0211", "name": "fonsorbes", "ordre": 211, "adresse": "Impasse de Bélesta, Cachac, Benech", "cumul_km": 3780.6}, "geometry": {"type": "Point", "coordinates": [1.2099526, 43.5281455]}}, {"type": "Feature", "properties": {"id": "MC0212", "name": "l’isle jourdain", "ordre": 212, "adresse": "Rue Commandant Yves Cousteau, Zone d'Activités Pont Peyrin, L'Isle-Jourdain", "cumul_km": 3797.8}, "geometry": {"type": "Point", "coordinates": [1.073119, 43.6035945]}}, {"type": "Feature", "properties": {"id": "MC0213", "name": "l’isle jourdain", "ordre": 213, "adresse": "Rue Commandant Yves Cousteau, Zone d'Activités Pont Peyrin, L'Isle-Jourdain", "cumul_km": 3797.8}, "geometry": {"type": "Point", "coordinates": [1.073119, 43.6035945]}}, {"type": "Feature", "properties": {"id": "MC0214", "name": "auch 2", "ordre": 214, "adresse": "Rue François Mauriac, Zone Commerciale de Clarac, Auch", "cumul_km": 3846.6}, "geometry": {"type": "Point", "coordinates": [0.5915243, 43.6647231]}}, {"type": "Feature", "properties": {"id": "MC0215", "name": "auch", "ordre": 215, "adresse": "Rue François Mauriac, Zone Commerciale de Clarac, Auch", "cumul_km": 3846.6}, "geometry": {"type": "Point", "coordinates": [0.5915243, 43.6647231]}}, {"type": "Feature", "properties": {"id": "MC0216", "name": "maubourguet", "ordre": 216, "adresse": "D 935, Maubourguet, Tarbes", "cumul_km": 3909.4}, "geometry": {"type": "Point", "coordinates": [0.0424387, 43.4426613]}}, {"type": "Feature", "properties": {"id": "MC0217", "name": "benejacq", "ordre": 217, "adresse": "Chemin Dufau, Bénéjacq, Pau", "cumul_km": 3954.6}, "geometry": {"type": "Point", "coordinates": [-0.2393086, 43.1870014]}}, {"type": "Feature", "properties": {"id": "MC0218", "name": "lourdes", "ordre": 218, "adresse": "N 21, Lourdes, Argelès-Gazost", "cumul_km": 3977.5}, "geometry": {"type": "Point", "coordinates": [-0.035019, 43.1125789]}}, {"type": "Feature", "properties": {"id": "MC0219", "name": "lourdes aquarium", "ordre": 219, "adresse": "N 21, Lourdes, Argelès-Gazost", "cumul_km": 3977.5}, "geometry": {"type": "Point", "coordinates": [-0.035019, 43.1125789]}}, {"type": "Feature", "properties": {"id": "MC0220", "name": "ibos", "ordre": 220, "adresse": "D 64, Le Pouey, Ibos", "cumul_km": 3996.1}, "geometry": {"type": "Point", "coordinates": [0.0183946, 43.2413133]}}, {"type": "Feature", "properties": {"id": "MC0221", "name": "tarbes", "ordre": 221, "adresse": "Boulevard du Général de Lattre de Tassigny, La Gespe, Tarbes", "cumul_km": 4001.1}, "geometry": {"type": "Point", "coordinates": [0.0597811, 43.2214341]}}, {"type": "Feature", "properties": {"id": "MC0222", "name": "lannemezan", "ordre": 222, "adresse": "Rue de la Ramondia, Zone Commerciale de la Ramondia, Lannemezan", "cumul_km": 4037.7}, "geometry": {"type": "Point", "coordinates": [0.3864841, 43.1035807]}}, {"type": "Feature", "properties": {"id": "MC0223", "name": "gourdan polignan", "ordre": 223, "adresse": "ZC, Drive-through, Gourdan-Polignan", "cumul_km": 4059.3}, "geometry": {"type": "Point", "coordinates": [0.5930302, 43.0607335]}}, {"type": "Feature", "properties": {"id": "MC0224", "name": "estancarbon", "ordre": 224, "adresse": "2, Avenue du Pic du Midi, ZAC des Landes", "cumul_km": 4077.7}, "geometry": {"type": "Point", "coordinates": [0.7598575, 43.113562]}}, {"type": "Feature", "properties": {"id": "MC0225", "name": "cazeres", "ordre": 225, "adresse": "Chemin de Bordegrosse, Cazères, Muret", "cumul_km": 4113.7}, "geometry": {"type": "Point", "coordinates": [1.0756642, 43.2364429]}}, {"type": "Feature", "properties": {"id": "MC0226", "name": "saint lizier", "ordre": 226, "adresse": "Route de Toulouse, Les Gaillardoux, Saint-Lizier", "cumul_km": 4145.9}, "geometry": {"type": "Point", "coordinates": [1.1264798, 43.0057492]}}, {"type": "Feature", "properties": {"id": "MC0227", "name": "tarascon", "ordre": 227, "adresse": "Route de Quié, Les Arrigols, Saint-Roch", "cumul_km": 4198.5}, "geometry": {"type": "Point", "coordinates": [1.599891, 42.8456402]}}, {"type": "Feature", "properties": {"id": "MC0228", "name": "foix", "ordre": 228, "adresse": "Barreau de Peysales, Zone d'Activités de Peysales, Les Bignes", "cumul_km": 4213.0}, "geometry": {"type": "Point", "coordinates": [1.6236455, 42.949109]}}, {"type": "Feature", "properties": {"id": "MC0229", "name": "laroque d’olmes", "ordre": 229, "adresse": "Avenue du 11 Novembre 1918, Bourges, Laroque-d'Olmes", "cumul_km": 4237.3}, "geometry": {"type": "Point", "coordinates": [1.8642589, 42.9634749]}}, {"type": "Feature", "properties": {"id": "MC0230", "name": "laroque d’olmes", "ordre": 230, "adresse": "Avenue du 11 Novembre 1918, Bourges, Laroque-d'Olmes", "cumul_km": 4237.3}, "geometry": {"type": "Point", "coordinates": [1.8642589, 42.9634749]}}, {"type": "Feature", "properties": {"id": "MC0231", "name": "verniolle", "ordre": 231, "adresse": "N 20, Verniolle, Foix", "cumul_km": 4264.6}, "geometry": {"type": "Point", "coordinates": [1.6405359, 43.0742444]}}, {"type": "Feature", "properties": {"id": "MC0232", "name": "pamiers", "ordre": 232, "adresse": "Avenue de la Bouriette, Pamiers, Ariège", "cumul_km": 4268.8}, "geometry": {"type": "Point", "coordinates": [1.6295031, 43.1035435]}}, {"type": "Feature", "properties": {"id": "MC0233", "name": "saverdun", "ordre": 233, "adresse": "D 927, Saverdun, Pamiers", "cumul_km": 4290.2}, "geometry": {"type": "Point", "coordinates": [1.5656146, 43.2517508]}}, {"type": "Feature", "properties": {"id": "MC0234", "name": "auterive", "ordre": 234, "adresse": "Route de Toulouse, Auterive, Muret", "cumul_km": 4308.8}, "geometry": {"type": "Point", "coordinates": [1.4591978, 43.3623719]}}, {"type": "Feature", "properties": {"id": "MC0235", "name": "muret nord", "ordre": 235, "adresse": "Rue Carlos et Smith, Muret, Haute-Garonne", "cumul_km": 4328.8}, "geometry": {"type": "Point", "coordinates": [1.3298478, 43.4731539]}}, {"type": "Feature", "properties": {"id": "MC0236", "name": "roques sur garonne", "ordre": 236, "adresse": "D 817, La Pointe, Roques", "cumul_km": 4335.5}, "geometry": {"type": "Point", "coordinates": [1.3704832, 43.5113352]}}, {"type": "Feature", "properties": {"id": "MC0237", "name": "cugnaux", "ordre": 237, "adresse": "1, Avenue Georges Pompidou, L'Agora", "cumul_km": 4338.6}, "geometry": {"type": "Point", "coordinates": [1.3512418, 43.5294121]}}, {"type": "Feature", "properties": {"id": "MC0238", "name": "portet sur garonne", "ordre": 238, "adresse": "Impasse de l'Enclos, Zone commerciale de Portet-sur-Garonne, Portet-sur-Garonne", "cumul_km": 4343.6}, "geometry": {"type": "Point", "coordinates": [1.4005822, 43.5354303]}}, {"type": "Feature", "properties": {"id": "MC0239", "name": "toulouse route d’espagne", "ordre": 239, "adresse": "Rue Léon Joulin, Zone industrielle de Toulouse Sud, Saint-Simon / Lafourguette / Oncopole - Campus Santé du Futur", "cumul_km": 4346.4}, "geometry": {"type": "Point", "coordinates": [1.4198459, 43.5495671]}}, {"type": "Feature", "properties": {"id": "MC0240", "name": "toulouse route d’espagne", "ordre": 240, "adresse": "Rue Léon Joulin, Zone industrielle de Toulouse Sud, Saint-Simon / Lafourguette / Oncopole - Campus Santé du Futur", "cumul_km": 4346.4}, "geometry": {"type": "Point", "coordinates": [1.4198459, 43.5495671]}}, {"type": "Feature", "properties": {"id": "MC0241", "name": "toulouse portet cc", "ordre": 241, "adresse": "Avenue du Mirail, Basso-Cambo, Lardenne / Pradettes / Basso-Cambo", "cumul_km": 4350.1}, "geometry": {"type": "Point", "coordinates": [1.3923767, 43.5674788]}}, {"type": "Feature", "properties": {"id": "MC0242", "name": "toulouse reynerie", "ordre": 242, "adresse": "Avenue du Mirail, Basso-Cambo, Lardenne / Pradettes / Basso-Cambo", "cumul_km": 4350.1}, "geometry": {"type": "Point", "coordinates": [1.3923767, 43.5674788]}}, {"type": "Feature", "properties": {"id": "MC0243", "name": "toulouse purpan", "ordre": 243, "adresse": "16, Route de Bayonne, Zone Commerciale de Purpan", "cumul_km": 4355.7}, "geometry": {"type": "Point", "coordinates": [1.3953643, 43.6082896]}}, {"type": "Feature", "properties": {"id": "MC0244", "name": "toulouse koenigs", "ordre": 244, "adresse": "Boulevard Gabriel Koenigs, Patte d'Oie, Casselardit / Fontaine-Bayonne / Cartoucherie", "cumul_km": 4358.7}, "geometry": {"type": "Point", "coordinates": [1.4188627, 43.594846]}}, {"type": "Feature", "properties": {"id": "MC0245", "name": "toulouse capitole", "ordre": 245, "adresse": "Place Saint-Pierre, Daurade, Capitole", "cumul_km": 4360.8}, "geometry": {"type": "Point", "coordinates": [1.436279, 43.6031841]}}, {"type": "Feature", "properties": {"id": "MC0246", "name": "toulouse esquirol", "ordre": 246, "adresse": "12, Place Étienne Esquirol, Daurade", "cumul_km": 4361.7}, "geometry": {"type": "Point", "coordinates": [1.4446331, 43.600663]}}, {"type": "Feature", "properties": {"id": "MC0247", "name": "toulouse roosevelt", "ordre": 247, "adresse": "Esplanade François Mitterrand, Place Occitane, Saint-Georges", "cumul_km": 4362.4}, "geometry": {"type": "Point", "coordinates": [1.4483886, 43.6052543]}}, {"type": "Feature", "properties": {"id": "MC0248", "name": "toulouse compans", "ordre": 248, "adresse": "16, Boulevard Lascrosses, Compans-Caffarelli", "cumul_km": 4363.9}, "geometry": {"type": "Point", "coordinates": [1.4354149, 43.6108789]}}, {"type": "Feature", "properties": {"id": "MC0249", "name": "toulouse minimes", "ordre": 249, "adresse": "83, Boulevard Silvio Trentin, Cité Bourbaki", "cumul_km": 4366.1}, "geometry": {"type": "Point", "coordinates": [1.4330651, 43.6268621]}}, {"type": "Feature", "properties": {"id": "MC0250", "name": "toulouse l’union", "ordre": 250, "adresse": "Avenue de Saint-Caprais, L'Union, Toulouse", "cumul_km": 4370.8}, "geometry": {"type": "Point", "coordinates": [1.4718246, 43.645958]}}, {"type": "Feature", "properties": {"id": "MC0251", "name": "toulouse l’union", "ordre": 251, "adresse": "Avenue de Saint-Caprais, L'Union, Toulouse", "cumul_km": 4370.8}, "geometry": {"type": "Point", "coordinates": [1.4718246, 43.645958]}}, {"type": "Feature", "properties": {"id": "MC0252", "name": "rouffiac", "ordre": 252, "adresse": "Route d'Albi, Rouffiac-Tolosan, Toulouse", "cumul_km": 4375.9}, "geometry": {"type": "Point", "coordinates": [1.5125311, 43.6679185]}}, {"type": "Feature", "properties": {"id": "MC0253", "name": "toulouse jean chaubet", "ordre": 253, "adresse": "158, Avenue Jean Chaubet, Château de l'Hers", "cumul_km": 4384.9}, "geometry": {"type": "Point", "coordinates": [1.4830761, 43.6062877]}}, {"type": "Feature", "properties": {"id": "MC0254", "name": "balma", "ordre": 254, "adresse": "Route de Castres, Balma, Toulouse", "cumul_km": 4388.2}, "geometry": {"type": "Point", "coordinates": [1.5082745, 43.5911746]}}, {"type": "Feature", "properties": {"id": "MC0255", "name": "toulouse montaudran", "ordre": 255, "adresse": "2, Avenue Marcel Dassault, Montaudran", "cumul_km": 4391.0}, "geometry": {"type": "Point", "coordinates": [1.4939475, 43.5732229]}}, {"type": "Feature", "properties": {"id": "MC0256", "name": "saint orens", "ordre": 256, "adresse": "5, Avenue de Toulouse, Zone d'Activité Commerciale des Champs Pinson", "cumul_km": 4393.4}, "geometry": {"type": "Point", "coordinates": [1.5147931, 43.5648439]}}, {"type": "Feature", "properties": {"id": "MC0257", "name": "toulouse labege", "ordre": 257, "adresse": "Rue de Sienne, Labège-Innopole, Quartier Grande Borde", "cumul_km": 4395.8}, "geometry": {"type": "Point", "coordinates": [1.5021714, 43.5502529]}}, {"type": "Feature", "properties": {"id": "MC0258", "name": "toulouse labege 2", "ordre": 258, "adresse": "Rue de Sienne, Labège-Innopole, Quartier Grande Borde", "cumul_km": 4395.8}, "geometry": {"type": "Point", "coordinates": [1.5021714, 43.5502529]}}, {"type": "Feature", "properties": {"id": "MC0259", "name": "toulouse rangueil", "ordre": 259, "adresse": "Drive, La Bourdette, Pouvourville", "cumul_km": 4399.2}, "geometry": {"type": "Point", "coordinates": [1.4681064, 43.5542038]}}, {"type": "Feature", "properties": {"id": "MC0260", "name": "castanet", "ordre": 260, "adresse": "Avenue de Toulouse, Castanet-Tolosan, Toulouse", "cumul_km": 4404.7}, "geometry": {"type": "Point", "coordinates": [1.4967295, 43.5199935]}}, {"type": "Feature", "properties": {"id": "MC0261", "name": "ayguesvives", "ordre": 261, "adresse": "Chemin de la Val Priout, Zone d'Activités de la Val Priout, Ayguesvives", "cumul_km": 4418.2}, "geometry": {"type": "Point", "coordinates": [1.5919413, 43.4510431]}}, {"type": "Feature", "properties": {"id": "MC0262", "name": "villefranche de lauragais", "ordre": 262, "adresse": "D 622b, Site d'activités de Borde Blanche, Villefranche-de-Lauragais", "cumul_km": 4431.5}, "geometry": {"type": "Point", "coordinates": [1.7039693, 43.3990947]}}, {"type": "Feature", "properties": {"id": "MC0263", "name": "castelnaudary", "ordre": 263, "adresse": "Rond-Point de la Porteuse de Cassoulet, Castelnaudary, Carcassonne", "cumul_km": 4460.2}, "geometry": {"type": "Point", "coordinates": [1.9556024, 43.3000319]}}, {"type": "Feature", "properties": {"id": "MC0264", "name": "carcassonne", "ordre": 264, "adresse": "Avenue du 3e RPIMa, Cité 2, Cité Ozanam", "cumul_km": 4505.1}, "geometry": {"type": "Point", "coordinates": [2.3846064, 43.207301]}}, {"type": "Feature", "properties": {"id": "MC0265", "name": "carcassonne salvaza", "ordre": 265, "adresse": "Avenue du 3e RPIMa, Cité 2, Cité Ozanam", "cumul_km": 4505.1}, "geometry": {"type": "Point", "coordinates": [2.3846064, 43.207301]}}, {"type": "Feature", "properties": {"id": "MC0266", "name": "carcassonne cite drive", "ordre": 266, "adresse": "Avenue du 3e RPIMa, Cité 2, Cité Ozanam", "cumul_km": 4505.1}, "geometry": {"type": "Point", "coordinates": [2.3846064, 43.207301]}}, {"type": "Feature", "properties": {"id": "MC0267", "name": "limoux", "ordre": 267, "adresse": "Allée de la Piège, Zone d'activités industrielles et commerciales du Razès, Limoux", "cumul_km": 4529.8}, "geometry": {"type": "Point", "coordinates": [2.2202309, 43.0745903]}}, {"type": "Feature", "properties": {"id": "MC0268", "name": "prades", "ordre": 268, "adresse": "Chemin de las Bouchères, Zone Commerciale Gibraltar, Candès", "cumul_km": 4595.3}, "geometry": {"type": "Point", "coordinates": [2.4280963, 42.6248754]}}, {"type": "Feature", "properties": {"id": "MC0269", "name": "thuir", "ordre": 269, "adresse": "Rond-Point de la Pietat, Thuir, Céret", "cumul_km": 4629.3}, "geometry": {"type": "Point", "coordinates": [2.7628267, 42.6403271]}}, {"type": "Feature", "properties": {"id": "MC0270", "name": "le boulou", "ordre": 270, "adresse": "N9, ZAE En Cavaillés, Le Boulou", "cumul_km": 4645.9}, "geometry": {"type": "Point", "coordinates": [2.8412901, 42.5344672]}}, {"type": "Feature", "properties": {"id": "MC0271", "name": "argeles", "ordre": 271, "adresse": "3, Rue des Milans, Parc d'Activités La Grone", "cumul_km": 4663.1}, "geometry": {"type": "Point", "coordinates": [3.0067711, 42.5586672]}}, {"type": "Feature", "properties": {"id": "MC0272", "name": "latour bas elne", "ordre": 272, "adresse": "D 40, Al Mouly, Latour-Bas-Elne", "cumul_km": 4669.9}, "geometry": {"type": "Point", "coordinates": [2.9971327, 42.607827]}}, {"type": "Feature", "properties": {"id": "MC0273", "name": "canet en roussillon", "ordre": 273, "adresse": "Avenue des Alizés, Résidence Port Alizés, Alizés", "cumul_km": 4682.8}, "geometry": {"type": "Point", "coordinates": [3.0226137, 42.6992167]}}, {"type": "Feature", "properties": {"id": "MC0274", "name": "saint laurent de la salanque", "ordre": 274, "adresse": "Route du Barcarès, Zone commerciale La Tourre, Mas de la Torre", "cumul_km": 4693.1}, "geometry": {"type": "Point", "coordinates": [3.0147652, 42.7743276]}}, {"type": "Feature", "properties": {"id": "MC0275", "name": "perpignan san remo", "ordre": 275, "adresse": "McDrive, Massilia, Perpignan", "cumul_km": 4706.2}, "geometry": {"type": "Point", "coordinates": [2.9350577, 42.6996558]}}, {"type": "Feature", "properties": {"id": "MC0276", "name": "perpignan", "ordre": 276, "adresse": "Rue du Docteur Baillat, Terra Rosa, Porte d'Espagne", "cumul_km": 4712.1}, "geometry": {"type": "Point", "coordinates": [2.8900853, 42.6723322]}}, {"type": "Feature", "properties": {"id": "MC0277", "name": "perpignan porte d’europe", "ordre": 277, "adresse": "Rue du Docteur Baillat, Terra Rosa, Porte d'Espagne", "cumul_km": 4712.1}, "geometry": {"type": "Point", "coordinates": [2.8900853, 42.6723322]}}, {"type": "Feature", "properties": {"id": "MC0278", "name": "perpignan porte d’europe", "ordre": 278, "adresse": "Rue du Docteur Baillat, Terra Rosa, Porte d'Espagne", "cumul_km": 4712.1}, "geometry": {"type": "Point", "coordinates": [2.8900853, 42.6723322]}}, {"type": "Feature", "properties": {"id": "MC0279", "name": "perpignan porte d’espagne", "ordre": 279, "adresse": "Route du Perthus, Terra Rosa, Porte d'Espagne", "cumul_km": 4712.8}, "geometry": {"type": "Point", "coordinates": [2.8841378, 42.6701247]}}, {"type": "Feature", "properties": {"id": "MC0280", "name": "perpignan porte d’espagne", "ordre": 280, "adresse": "Route du Perthus, Terra Rosa, Porte d'Espagne", "cumul_km": 4712.8}, "geometry": {"type": "Point", "coordinates": [2.8841378, 42.6701247]}}, {"type": "Feature", "properties": {"id": "MC0281", "name": "perpignan saint charles", "ordre": 281, "adresse": "Route de Mont-Louis à Perpignan, Saint-Charles, Perpignan", "cumul_km": 4717.8}, "geometry": {"type": "Point", "coordinates": [2.8464835, 42.6938135]}}, {"type": "Feature", "properties": {"id": "MC0282", "name": "perpignan joffre", "ordre": 282, "adresse": "Rue Gustave Courbet, Patte d'Oie, Haut Vernet", "cumul_km": 4723.1}, "geometry": {"type": "Point", "coordinates": [2.8879339, 42.7171853]}}, {"type": "Feature", "properties": {"id": "MC0283", "name": "claira", "ordre": 283, "adresse": "McDrive, Centre Commercial Cap Roussillon, Claira", "cumul_km": 4731.8}, "geometry": {"type": "Point", "coordinates": [2.9151332, 42.776907]}}, {"type": "Feature", "properties": {"id": "MC0284", "name": "sigean", "ordre": 284, "adresse": "Route de Fraïsse, Zone d'Activité du Peyrou, Le Peyrou", "cumul_km": 4767.2}, "geometry": {"type": "Point", "coordinates": [2.9659276, 43.030531]}}, {"type": "Feature", "properties": {"id": "MC0285", "name": "lezignan", "ordre": 285, "adresse": "Rue Alfred Nobel, Lézignan-Corbières, Narbonne", "cumul_km": 4797.8}, "geometry": {"type": "Point", "coordinates": [2.75073, 43.1875419]}}, {"type": "Feature", "properties": {"id": "MC0286", "name": "montredon", "ordre": 286, "adresse": "D 6113, Zone industrielle de la Plaine et du Castellas, Montredon-des-Corbières", "cumul_km": 4816.3}, "geometry": {"type": "Point", "coordinates": [2.9345134, 43.183318]}}, {"type": "Feature", "properties": {"id": "MC0287", "name": "narbonne bonne source", "ordre": 287, "adresse": "Voie Communale du Silène, Horte Neuve, Narbonne", "cumul_km": 4825.7}, "geometry": {"type": "Point", "coordinates": [3.0279961, 43.1816314]}}, {"type": "Feature", "properties": {"id": "MC0288", "name": "narbonne espace liberte", "ordre": 288, "adresse": "Voie Communale du Silène, Horte Neuve, Narbonne", "cumul_km": 4825.7}, "geometry": {"type": "Point", "coordinates": [3.0279961, 43.1816314]}}, {"type": "Feature", "properties": {"id": "MC0289", "name": "narbonne", "ordre": 289, "adresse": "Voie Communale du Silène, Horte Neuve, Narbonne", "cumul_km": 4825.7}, "geometry": {"type": "Point", "coordinates": [3.0279961, 43.1816314]}}, {"type": "Feature", "properties": {"id": "MC0290", "name": "colombiers", "ordre": 290, "adresse": "4, Rue des Anciennes Carrières, Parc d'Activités Économiques Cantegals", "cumul_km": 4848.2}, "geometry": {"type": "Point", "coordinates": [3.1684577, 43.3091443]}}, {"type": "Feature", "properties": {"id": "MC0291", "name": "beziers courondelle", "ordre": 291, "adresse": "Boulevard Ernest Hemingway, La Courondelle, Béziers", "cumul_km": 4857.8}, "geometry": {"type": "Point", "coordinates": [3.2249799, 43.3648946]}}, {"type": "Feature", "properties": {"id": "MC0292", "name": "beziers", "ordre": 292, "adresse": "Boulevard Ernest Hemingway, La Courondelle, Béziers", "cumul_km": 4857.8}, "geometry": {"type": "Point", "coordinates": [3.2249799, 43.3648946]}}, {"type": "Feature", "properties": {"id": "MC0293", "name": "beziers frigoulas", "ordre": 293, "adresse": "Avenue de la Voie Domitienne, Zone d'Activités du Frigoulas, Montimaran", "cumul_km": 4861.2}, "geometry": {"type": "Point", "coordinates": [3.2506424, 43.34815]}}, {"type": "Feature", "properties": {"id": "MC0294", "name": "serignan", "ordre": 294, "adresse": "Avenue Georges Pompidou, ZAC de Bellegarde, Sérignan", "cumul_km": 4872.6}, "geometry": {"type": "Point", "coordinates": [3.2834136, 43.2695769]}}, {"type": "Feature", "properties": {"id": "MC0295", "name": "agde cayret", "ordre": 295, "adresse": "Rue Grand Cap, Grau d'Agde, Agde", "cumul_km": 4892.4}, "geometry": {"type": "Point", "coordinates": [3.4768893, 43.2978958]}}, {"type": "Feature", "properties": {"id": "MC0296", "name": "agde", "ordre": 296, "adresse": "Rue Grand Cap, Grau d'Agde, Agde", "cumul_km": 4892.4}, "geometry": {"type": "Point", "coordinates": [3.4768893, 43.2978958]}}, {"type": "Feature", "properties": {"id": "MC0297", "name": "balaruc", "ordre": 297, "adresse": "Chemin des Charbonnières, Balaruc-le-Vieux, Montpellier", "cumul_km": 4923.6}, "geometry": {"type": "Point", "coordinates": [3.6928691, 43.4609065]}}, {"type": "Feature", "properties": {"id": "MC0298", "name": "frontignan", "ordre": 298, "adresse": "Rue des Paluds, ZI du Barnier, Frontignan", "cumul_km": 4931.0}, "geometry": {"type": "Point", "coordinates": [3.7671283, 43.4646636]}}, {"type": "Feature", "properties": {"id": "MC0299", "name": "le grau du roi", "ordre": 299, "adresse": "Route de l'Espiguette, Port-Camargue, Le Grau-du-Roi", "cumul_km": 4969.9}, "geometry": {"type": "Point", "coordinates": [4.1492932, 43.5167828]}}, {"type": "Feature", "properties": {"id": "MC0300", "name": "arles fourchon", "ordre": 300, "adresse": "Rue du Maréchal Juin, ZAC Cap Fourchon, Les Alyscamps", "cumul_km": 5022.7}, "geometry": {"type": "Point", "coordinates": [4.6361826, 43.666664]}}, {"type": "Feature", "properties": {"id": "MC0301", "name": "saint martin de crau", "ordre": 301, "adresse": "Avenue Marcellin Berthelot, Zone Ecopôle, Zone artisanale Actiparc de la Crau", "cumul_km": 5040.1}, "geometry": {"type": "Point", "coordinates": [4.8019835, 43.6286369]}}, {"type": "Feature", "properties": {"id": "MC0302", "name": "beaucaire", "ordre": 302, "adresse": "Chemin de Genestet, Beaucaire, Nîmes", "cumul_km": 5072.0}, "geometry": {"type": "Point", "coordinates": [4.6151668, 43.8168181]}}, {"type": "Feature", "properties": {"id": "MC0303", "name": "remoulins", "ordre": 303, "adresse": "Rue du Moulin d'Aure, l'Arnède, Remoulins", "cumul_km": 5089.4}, "geometry": {"type": "Point", "coordinates": [4.5757436, 43.9396663]}}, {"type": "Feature", "properties": {"id": "MC0304", "name": "uzes", "ordre": 304, "adresse": "Rue Paul Aubrespy, Carrignargues, Uzès", "cumul_km": 5105.6}, "geometry": {"type": "Point", "coordinates": [4.4279957, 43.9891935]}}, {"type": "Feature", "properties": {"id": "MC0305", "name": "nimes courbessac", "ordre": 305, "adresse": "Rue du Clos de Coutelle, Mas de Mingue, Nîmes", "cumul_km": 5124.0}, "geometry": {"type": "Point", "coordinates": [4.4038077, 43.8568156]}}, {"type": "Feature", "properties": {"id": "MC0306", "name": "nimes ville active", "ordre": 306, "adresse": "Cours Jean Monnet, Ville Active, Capouchiné", "cumul_km": 5131.9}, "geometry": {"type": "Point", "coordinates": [4.3481617, 43.8154998]}}, {"type": "Feature", "properties": {"id": "MC0307", "name": "nimes kennedy", "ordre": 307, "adresse": "Avenue Kennedy, Carémeau, Nîmes", "cumul_km": 5135.7}, "geometry": {"type": "Point", "coordinates": [4.310504, 43.8129503]}}, {"type": "Feature", "properties": {"id": "MC0308", "name": "nimes cap costieres", "ordre": 308, "adresse": "Avenue Kennedy, Carémeau, Nîmes", "cumul_km": 5135.7}, "geometry": {"type": "Point", "coordinates": [4.310504, 43.8129503]}}, {"type": "Feature", "properties": {"id": "MC0309", "name": "nimes 7 collines", "ordre": 309, "adresse": "Avenue Kennedy, Carémeau, Nîmes", "cumul_km": 5135.7}, "geometry": {"type": "Point", "coordinates": [4.310504, 43.8129503]}}, {"type": "Feature", "properties": {"id": "MC0310", "name": "milhaud", "ordre": 310, "adresse": "N 113, Milhaud, Nîmes", "cumul_km": 5139.9}, "geometry": {"type": "Point", "coordinates": [4.2995063, 43.7837478]}}, {"type": "Feature", "properties": {"id": "MC0311", "name": "aimargues", "ordre": 311, "adresse": "Route de la Petite Camargue, Mas d'Androns, Aimargues", "cumul_km": 5155.6}, "geometry": {"type": "Point", "coordinates": [4.2050087, 43.6923352]}}, {"type": "Feature", "properties": {"id": "MC0312", "name": "lunel", "ordre": 312, "adresse": "Route de la Mer, Lunel, Montpellier", "cumul_km": 5161.1}, "geometry": {"type": "Point", "coordinates": [4.1513439, 43.6826452]}}, {"type": "Feature", "properties": {"id": "MC0313", "name": "baillargues la biste", "ordre": 313, "adresse": "103, Avenue de la Biste, Baillargues", "cumul_km": 5176.7}, "geometry": {"type": "Point", "coordinates": [3.9996542, 43.655069]}}, {"type": "Feature", "properties": {"id": "MC0314", "name": "montpellier le cres", "ordre": 314, "adresse": "Avenue des Chasseurs, Maumarin, Le Crès", "cumul_km": 5183.4}, "geometry": {"type": "Point", "coordinates": [3.9334115, 43.6597579]}}, {"type": "Feature", "properties": {"id": "MC0315", "name": "jacou", "ordre": 315, "adresse": "Rue de la Pierre Plantée, Espace Bocaud, Jacou", "cumul_km": 5186.5}, "geometry": {"type": "Point", "coordinates": [3.9022334, 43.66004]}}, {"type": "Feature", "properties": {"id": "MC0316", "name": "montpellier comedie", "ordre": 316, "adresse": "Place de la Comédie, Comédie, Centre", "cumul_km": 5193.9}, "geometry": {"type": "Point", "coordinates": [3.8792764, 43.6086422]}}, {"type": "Feature", "properties": {"id": "MC0317", "name": "montpellier la paillade", "ordre": 317, "adresse": "Place de la Comédie, Comédie, Centre", "cumul_km": 5193.9}, "geometry": {"type": "Point", "coordinates": [3.8792764, 43.6086422]}}, {"type": "Feature", "properties": {"id": "MC0318", "name": "montpellier odysseum", "ordre": 318, "adresse": "31, Rue de Maguelone, Gares", "cumul_km": 5194.4}, "geometry": {"type": "Point", "coordinates": [3.8806328, 43.6052784]}}, {"type": "Feature", "properties": {"id": "MC0319", "name": "montpellier polygone", "ordre": 319, "adresse": "31, Rue de Maguelone, Gares", "cumul_km": 5194.4}, "geometry": {"type": "Point", "coordinates": [3.8806328, 43.6052784]}}, {"type": "Feature", "properties": {"id": "MC0320", "name": "lattes drive", "ordre": 320, "adresse": "Avenue Georges Frêche, Boirargues, Lattes", "cumul_km": 5199.9}, "geometry": {"type": "Point", "coordinates": [3.9263328, 43.5835798]}}, {"type": "Feature", "properties": {"id": "MC0321", "name": "montpellier pres d’arenes", "ordre": 321, "adresse": "Avenue du Mas Argelliers, Prés d'Arènes, Montpellier", "cumul_km": 5203.6}, "geometry": {"type": "Point", "coordinates": [3.8892738, 43.5858221]}}, {"type": "Feature", "properties": {"id": "MC0322", "name": "montpellier pres d’arenes", "ordre": 322, "adresse": "Avenue du Mas Argelliers, Prés d'Arènes, Montpellier", "cumul_km": 5203.6}, "geometry": {"type": "Point", "coordinates": [3.8892738, 43.5858221]}}, {"type": "Feature", "properties": {"id": "MC0323", "name": "saint jean de vedas", "ordre": 323, "adresse": "Rue du Traité de Rome, Zac La Peyrière, Saint-Jean-de-Védas", "cumul_km": 5209.1}, "geometry": {"type": "Point", "coordinates": [3.8386166, 43.5694975]}}, {"type": "Feature", "properties": {"id": "MC0324", "name": "montpellier croix d’argent", "ordre": 324, "adresse": "Place Flandres-Dunkerque, Croix d'Argent, Montpellier", "cumul_km": 5212.3}, "geometry": {"type": "Point", "coordinates": [3.8560151, 43.5891933]}}, {"type": "Feature", "properties": {"id": "MC0325", "name": "montpellier croix d’argent", "ordre": 325, "adresse": "Place Flandres-Dunkerque, Croix d'Argent, Montpellier", "cumul_km": 5212.3}, "geometry": {"type": "Point", "coordinates": [3.8560151, 43.5891933]}}, {"type": "Feature", "properties": {"id": "MC0326", "name": "montpellier alco", "ordre": 326, "adresse": "Rue Duguay-Trouin, Alco, Les Cévennes", "cumul_km": 5217.7}, "geometry": {"type": "Point", "coordinates": [3.8382931, 43.6256249]}}, {"type": "Feature", "properties": {"id": "MC0327", "name": "juvignac", "ordre": 327, "adresse": "L'Héraultaise, Le Poumpidou, Juvignac", "cumul_km": 5221.8}, "geometry": {"type": "Point", "coordinates": [3.8001262, 43.613867]}}, {"type": "Feature", "properties": {"id": "MC0328", "name": "mcdonald’s pignan", "ordre": 328, "adresse": "M 5, Saint-Estève, Pignan", "cumul_km": 5226.8}, "geometry": {"type": "Point", "coordinates": [3.7735395, 43.5830027]}}, {"type": "Feature", "properties": {"id": "MC0329", "name": "mcdonald’s pignan", "ordre": 329, "adresse": "M 5, Saint-Estève, Pignan", "cumul_km": 5226.8}, "geometry": {"type": "Point", "coordinates": [3.7735395, 43.5830027]}}, {"type": "Feature", "properties": {"id": "MC0330", "name": "gignac", "ordre": 330, "adresse": "Drive In McDonald's, Zone d'activité Cosmo, Gignac", "cumul_km": 5251.6}, "geometry": {"type": "Point", "coordinates": [3.543486, 43.6507254]}}, {"type": "Feature", "properties": {"id": "MC0331", "name": "clermont l’herault", "ordre": 331, "adresse": "Chemin de la Madeleine, Les Cassagnasses, Clermont-l'Hérault", "cumul_km": 5262.9}, "geometry": {"type": "Point", "coordinates": [3.4370568, 43.622843]}}, {"type": "Feature", "properties": {"id": "MC0332", "name": "clermont l’herault", "ordre": 332, "adresse": "Chemin de la Madeleine, Les Cassagnasses, Clermont-l'Hérault", "cumul_km": 5262.9}, "geometry": {"type": "Point", "coordinates": [3.4370568, 43.622843]}}, {"type": "Feature", "properties": {"id": "MC0333", "name": "pezenas", "ordre": 333, "adresse": "Avenue de Verdun, La Fournaise, Pézenas", "cumul_km": 5286.4}, "geometry": {"type": "Point", "coordinates": [3.4191142, 43.4528345]}}, {"type": "Feature", "properties": {"id": "MC0334", "name": "bedarieux", "ordre": 334, "adresse": "La Bastide, Zone d'activité La Bastide, Bédarieux", "cumul_km": 5321.4}, "geometry": {"type": "Point", "coordinates": [3.1291494, 43.594956]}}, {"type": "Feature", "properties": {"id": "MC0335", "name": "mazamet", "ordre": 335, "adresse": "Avenue de la Richarde, La Molière Basse, Négrin", "cumul_km": 5396.8}, "geometry": {"type": "Point", "coordinates": [2.3864222, 43.4986119]}}, {"type": "Feature", "properties": {"id": "MC0336", "name": "castres", "ordre": 336, "adresse": "13, Rue Jean Souterène, Le Siala", "cumul_km": 5414.3}, "geometry": {"type": "Point", "coordinates": [2.2671847, 43.5910062]}}, {"type": "Feature", "properties": {"id": "MC0337", "name": "castres siala", "ordre": 337, "adresse": "13, Rue Jean Souterène, Le Siala", "cumul_km": 5414.3}, "geometry": {"type": "Point", "coordinates": [2.2671847, 43.5910062]}}, {"type": "Feature", "properties": {"id": "MC0338", "name": "graulhet", "ordre": 338, "adresse": "Avenue Maréchal Juin, La Bousquetarie, Graulhet", "cumul_km": 5452.5}, "geometry": {"type": "Point", "coordinates": [1.9631333, 43.7596272]}}, {"type": "Feature", "properties": {"id": "MC0339", "name": "lavaur", "ordre": 339, "adresse": "Avenue Georges Spénale, Fenoules, Lavaur", "cumul_km": 5470.5}, "geometry": {"type": "Point", "coordinates": [1.7993659, 43.7040651]}}, {"type": "Feature", "properties": {"id": "MC0340", "name": "gaillac", "ordre": 340, "adresse": "Avenue Saint-Exupéry, Gaillac, Albi", "cumul_km": 5497.6}, "geometry": {"type": "Point", "coordinates": [1.8796679, 43.8923008]}}, {"type": "Feature", "properties": {"id": "MC0341", "name": "albi", "ordre": 341, "adresse": "57, Avenue de Saint-Juéry, La Renaudié", "cumul_km": 5527.9}, "geometry": {"type": "Point", "coordinates": [2.1783998, 43.9360942]}}, {"type": "Feature", "properties": {"id": "MC0342", "name": "albi saint juéry", "ordre": 342, "adresse": "57, Avenue de Saint-Juéry, La Renaudié", "cumul_km": 5527.9}, "geometry": {"type": "Point", "coordinates": [2.1783998, 43.9360942]}}, {"type": "Feature", "properties": {"id": "MC0343", "name": "albi saint juéry", "ordre": 343, "adresse": "57, Avenue de Saint-Juéry, La Renaudié", "cumul_km": 5527.9}, "geometry": {"type": "Point", "coordinates": [2.1783998, 43.9360942]}}, {"type": "Feature", "properties": {"id": "MC0344", "name": "lescure d’albigeois", "ordre": 344, "adresse": "RN88 - Direction Albi, Lescure-d'Albigeois, Albi", "cumul_km": 5531.4}, "geometry": {"type": "Point", "coordinates": [2.1551004, 43.9548091]}}, {"type": "Feature", "properties": {"id": "MC0345", "name": "lescure d’albigeois", "ordre": 345, "adresse": "RN88 - Direction Albi, Lescure-d'Albigeois, Albi", "cumul_km": 5531.4}, "geometry": {"type": "Point", "coordinates": [2.1551004, 43.9548091]}}, {"type": "Feature", "properties": {"id": "MC0346", "name": "villefranche de rouergue", "ordre": 346, "adresse": "Giratoire des Imberts, Les Imberts, Les Imberts Hauts", "cumul_km": 5589.1}, "geometry": {"type": "Point", "coordinates": [2.011802, 44.3601775]}}, {"type": "Feature", "properties": {"id": "MC0347", "name": "figeac", "ordre": 347, "adresse": "Rond-Point de Nayrac, Zone d'activités de Lafarrayrie, Cantemerle", "cumul_km": 5623.3}, "geometry": {"type": "Point", "coordinates": [2.0155756, 44.6085387]}}, {"type": "Feature", "properties": {"id": "MC0348", "name": "decazeville", "ordre": 348, "adresse": "Avenue du 10 Août, Le Jouncas, Decazeville", "cumul_km": 5647.9}, "geometry": {"type": "Point", "coordinates": [2.2560633, 44.5598621]}}, {"type": "Feature", "properties": {"id": "MC0349", "name": "espalion", "ordre": 349, "adresse": "Avenue d'Estaing, Zone Artisanale de la \"Bouysse\", La Garde", "cumul_km": 5695.9}, "geometry": {"type": "Point", "coordinates": [2.7438002, 44.5315556]}}, {"type": "Feature", "properties": {"id": "MC0350", "name": "onet le chateau", "ordre": 350, "adresse": "Route d'Espalion, Espace Commercial Saint-Marc, Les Quatre Saisons", "cumul_km": 5722.4}, "geometry": {"type": "Point", "coordinates": [2.5924659, 44.3725343]}}, {"type": "Feature", "properties": {"id": "MC0351", "name": "rodez", "ordre": 351, "adresse": "Rue du Prat Mouly, L'Usine à Gaz, Saint-Éloi", "cumul_km": 5725.2}, "geometry": {"type": "Point", "coordinates": [2.5705554, 44.3605392]}}, {"type": "Feature", "properties": {"id": "MC0352", "name": "luc la primaube", "ordre": 352, "adresse": "8, Rue de l'Aqueduc Romain, La Boissonnade", "cumul_km": 5731.7}, "geometry": {"type": "Point", "coordinates": [2.5583853, 44.3139622]}}, {"type": "Feature", "properties": {"id": "MC0353", "name": "millau", "ordre": 353, "adresse": "Impasse des Terres Noires, Bèches, La Maladrerie", "cumul_km": 5791.9}, "geometry": {"type": "Point", "coordinates": [3.0824814, 44.0909303]}}, {"type": "Feature", "properties": {"id": "MC0354", "name": "mende", "ordre": 354, "adresse": "27, Avenue de Ramilles, Zone d’Activité Commerciale de Ramilles", "cumul_km": 5862.2}, "geometry": {"type": "Point", "coordinates": [3.4781001, 44.514689]}}, {"type": "Feature", "properties": {"id": "MC0355", "name": "ales centre", "ordre": 355, "adresse": "657, Chemin des Potences, Bruèges", "cumul_km": 5941.5}, "geometry": {"type": "Point", "coordinates": [4.098124, 44.1491762]}}, {"type": "Feature", "properties": {"id": "MC0356", "name": "ales nord", "ordre": 356, "adresse": "657, Chemin des Potences, Bruèges", "cumul_km": 5941.5}, "geometry": {"type": "Point", "coordinates": [4.098124, 44.1491762]}}, {"type": "Feature", "properties": {"id": "MC0357", "name": "ales", "ordre": 357, "adresse": "657, Chemin des Potences, Bruèges", "cumul_km": 5941.5}, "geometry": {"type": "Point", "coordinates": [4.098124, 44.1491762]}}, {"type": "Feature", "properties": {"id": "MC0358", "name": "bagnols sur ceze", "ordre": 358, "adresse": "Route de Saint-Gervais, Bagnols-sur-Cèze, Nîmes", "cumul_km": 5993.1}, "geometry": {"type": "Point", "coordinates": [4.6192077, 44.1775852]}}, {"type": "Feature", "properties": {"id": "MC0359", "name": "pierrelatte", "ordre": 359, "adresse": "245, Rue Pierre Larousse, Pierrelatte", "cumul_km": 6020.4}, "geometry": {"type": "Point", "coordinates": [4.6931551, 44.3679856]}}, {"type": "Feature", "properties": {"id": "MC0360", "name": "bollene l’ecluse", "ordre": 360, "adresse": "Rond-Point des Portes de Provence, La Planchette, Bollène", "cumul_km": 6032.6}, "geometry": {"type": "Point", "coordinates": [4.7514181, 44.289674]}}, {"type": "Feature", "properties": {"id": "MC0361", "name": "bollene l’ecluse", "ordre": 361, "adresse": "Rond-Point des Portes de Provence, La Planchette, Bollène", "cumul_km": 6032.6}, "geometry": {"type": "Point", "coordinates": [4.7514181, 44.289674]}}, {"type": "Feature", "properties": {"id": "MC0362", "name": "bollene", "ordre": 362, "adresse": "Rond-Point des Portes de Provence, La Planchette, Bollène", "cumul_km": 6032.6}, "geometry": {"type": "Point", "coordinates": [4.7514181, 44.289674]}}, {"type": "Feature", "properties": {"id": "MC0363", "name": "carpentras", "ordre": 363, "adresse": "383, Avenue Charles de Gaulle, Les Arènes", "cumul_km": 6054.3}, "geometry": {"type": "Point", "coordinates": [4.7993622, 44.1359348]}}, {"type": "Feature", "properties": {"id": "MC0364", "name": "carpentras nord", "ordre": 364, "adresse": "383, Avenue Charles de Gaulle, Les Arènes", "cumul_km": 6054.3}, "geometry": {"type": "Point", "coordinates": [4.7993622, 44.1359348]}}, {"type": "Feature", "properties": {"id": "MC0365", "name": "saint laurent des arbres", "ordre": 365, "adresse": "Avenue de Tesan, Parc d'activités de Tésan, Saint-Laurent-des-Arbres", "cumul_km": 6068.2}, "geometry": {"type": "Point", "coordinates": [4.7102642, 44.0586182]}}, {"type": "Feature", "properties": {"id": "MC0366", "name": "nimes les halles", "ordre": 366, "adresse": "Avenue de la 2e Division Blindee, Zone commerciale, Grand Angles", "cumul_km": 6082.4}, "geometry": {"type": "Point", "coordinates": [4.7481451, 43.9589906]}}, {"type": "Feature", "properties": {"id": "MC0367", "name": "avignon courtine", "ordre": 367, "adresse": "Rocade Charles de Gaulle, Courtine, Quartier Ouest", "cumul_km": 6087.7}, "geometry": {"type": "Point", "coordinates": [4.7835167, 43.9307877]}}, {"type": "Feature", "properties": {"id": "MC0368", "name": "avignon centre", "ordre": 368, "adresse": "Rue de la République, Jaurès - République, Quartier Centre", "cumul_km": 6090.8}, "geometry": {"type": "Point", "coordinates": [4.805883, 43.9469611]}}, {"type": "Feature", "properties": {"id": "MC0369", "name": "avignon fontcouverte", "ordre": 369, "adresse": "Avenue de Fontcouverte, Neuf Peyres, Quartier Est", "cumul_km": 6094.0}, "geometry": {"type": "Point", "coordinates": [4.8364717, 43.939706]}}, {"type": "Feature", "properties": {"id": "MC0370", "name": "le pontet rn7", "ordre": 370, "adresse": "Rue Jean et René Reinaudo, Réalpanier Nord, Réalpanier", "cumul_km": 6096.7}, "geometry": {"type": "Point", "coordinates": [4.8585409, 43.9510299]}}, {"type": "Feature", "properties": {"id": "MC0371", "name": "le pontet real panier", "ordre": 371, "adresse": "Rue Jean et René Reinaudo, Réalpanier Nord, Réalpanier", "cumul_km": 6096.7}, "geometry": {"type": "Point", "coordinates": [4.8585409, 43.9510299]}}, {"type": "Feature", "properties": {"id": "MC0372", "name": "avignon le pontet", "ordre": 372, "adresse": "Rue Jean et René Reinaudo, Réalpanier Nord, Réalpanier", "cumul_km": 6096.7}, "geometry": {"type": "Point", "coordinates": [4.8585409, 43.9510299]}}, {"type": "Feature", "properties": {"id": "MC0373", "name": "avignon les angles", "ordre": 373, "adresse": "D 225, Périgord, Le Pontet", "cumul_km": 6101.0}, "geometry": {"type": "Point", "coordinates": [4.8789832, 43.9789142]}}, {"type": "Feature", "properties": {"id": "MC0374", "name": "avignon la cristole", "ordre": 374, "adresse": "Rue du Sous-Marin Casabianca, ZA La Cristole, Ceinture Verte d'Avignon", "cumul_km": 6109.1}, "geometry": {"type": "Point", "coordinates": [4.8587536, 43.9222535]}}, {"type": "Feature", "properties": {"id": "MC0375", "name": "arles nord", "ordre": 375, "adresse": "Boulevard Ernest Genevet, Châteaurenard, Arles", "cumul_km": 6113.8}, "geometry": {"type": "Point", "coordinates": [4.8526787, 43.8882584]}}, {"type": "Feature", "properties": {"id": "MC0376", "name": "arles", "ordre": 376, "adresse": "Boulevard Ernest Genevet, Châteaurenard, Arles", "cumul_km": 6113.8}, "geometry": {"type": "Point", "coordinates": [4.8526787, 43.8882584]}}, {"type": "Feature", "properties": {"id": "MC0377", "name": "chateaurenard", "ordre": 377, "adresse": "Boulevard Ernest Genevet, Châteaurenard, Arles", "cumul_km": 6113.8}, "geometry": {"type": "Point", "coordinates": [4.8526787, 43.8882584]}}, {"type": "Feature", "properties": {"id": "MC0378", "name": "l’isle sur sorgue", "ordre": 378, "adresse": "Route de Carpentras, L'Isle-sur-la-Sorgue, Avignon", "cumul_km": 6135.7}, "geometry": {"type": "Point", "coordinates": [5.0642141, 43.9321517]}}, {"type": "Feature", "properties": {"id": "MC0379", "name": "l’isle sur sorgue", "ordre": 379, "adresse": "Route de Carpentras, L'Isle-sur-la-Sorgue, Avignon", "cumul_km": 6135.7}, "geometry": {"type": "Point", "coordinates": [5.0642141, 43.9321517]}}, {"type": "Feature", "properties": {"id": "MC0380", "name": "cavaillon", "ordre": 380, "adresse": "Chemin du Grand Grès, Cavaillon, Apt", "cumul_km": 6147.1}, "geometry": {"type": "Point", "coordinates": [5.0270101, 43.854345]}}, {"type": "Feature", "properties": {"id": "MC0381", "name": "senas", "ordre": 381, "adresse": "D 7N, Sénas, Aix-en-Provence", "cumul_km": 6163.9}, "geometry": {"type": "Point", "coordinates": [5.0902705, 43.740815]}}, {"type": "Feature", "properties": {"id": "MC0382", "name": "salon de provence", "ordre": 382, "adresse": "Rue Jacqueline Auriol, ZC Les Viougues, Les Viougues", "cumul_km": 6179.5}, "geometry": {"type": "Point", "coordinates": [5.112521, 43.6287833]}}, {"type": "Feature", "properties": {"id": "MC0383", "name": "miramas", "ordre": 383, "adresse": "Boulevard Théodore Aubanel, Miramas, Istres", "cumul_km": 6192.1}, "geometry": {"type": "Point", "coordinates": [5.0000079, 43.5876809]}}, {"type": "Feature", "properties": {"id": "MC0384", "name": "istres les craux", "ordre": 384, "adresse": "Chemin du Bord de Crau, ZAC des Baucasson, Istres", "cumul_km": 6202.2}, "geometry": {"type": "Point", "coordinates": [4.9642485, 43.5192961]}}, {"type": "Feature", "properties": {"id": "MC0385", "name": "fos sur mer", "ordre": 385, "adresse": "Avenue Jean Jaurès, Les Marais, Fos-sur-Mer", "cumul_km": 6214.4}, "geometry": {"type": "Point", "coordinates": [4.9458642, 43.4318199]}}, {"type": "Feature", "properties": {"id": "MC0386", "name": "istres les cognets", "ordre": 386, "adresse": "Avenue Jean Jaurès, Les Marais, Fos-sur-Mer", "cumul_km": 6214.4}, "geometry": {"type": "Point", "coordinates": [4.9458642, 43.4318199]}}, {"type": "Feature", "properties": {"id": "MC0387", "name": "port de bouc", "ordre": 387, "adresse": "N 568, Lotissement les Genets, Port-de-Bouc", "cumul_km": 6220.5}, "geometry": {"type": "Point", "coordinates": [5.0010099, 43.4130146]}}, {"type": "Feature", "properties": {"id": "MC0388", "name": "martigues", "ordre": 388, "adresse": "Boulevard Paul Éluard, ZAC de Canto Perdrix, Martigues", "cumul_km": 6226.0}, "geometry": {"type": "Point", "coordinates": [5.0545039, 43.421696]}}, {"type": "Feature", "properties": {"id": "MC0389", "name": "chateauneuf les martigues", "ordre": 389, "adresse": "D 568, La Glacière, Châteauneuf-les-Martigues", "cumul_km": 6234.6}, "geometry": {"type": "Point", "coordinates": [5.1311737, 43.3940206]}}, {"type": "Feature", "properties": {"id": "MC0390", "name": "saint victoret marignane", "ordre": 390, "adresse": "Avenue du 8 Mai 1945, Saint-Victoret, Istres", "cumul_km": 6245.0}, "geometry": {"type": "Point", "coordinates": [5.2295329, 43.4179945]}}, {"type": "Feature", "properties": {"id": "MC0391", "name": "vitrolles 4 chemins", "ordre": 391, "adresse": "McDrive, Le Liourat, La Tuilière", "cumul_km": 6248.8}, "geometry": {"type": "Point", "coordinates": [5.263968, 43.4308225]}}, {"type": "Feature", "properties": {"id": "MC0392", "name": "vitrolles", "ordre": 392, "adresse": "McDrive, Le Liourat, La Tuilière", "cumul_km": 6248.8}, "geometry": {"type": "Point", "coordinates": [5.263968, 43.4308225]}}, {"type": "Feature", "properties": {"id": "MC0393", "name": "rognac", "ordre": 393, "adresse": "D 113, Rognac, Istres", "cumul_km": 6257.3}, "geometry": {"type": "Point", "coordinates": [5.2227985, 43.4847535]}}, {"type": "Feature", "properties": {"id": "MC0394", "name": "la fare les oliviers", "ordre": 394, "adresse": "Avenue du Général de Gaulle, La Fare-les-Oliviers, Aix-en-Provence", "cumul_km": 6266.4}, "geometry": {"type": "Point", "coordinates": [5.2275264, 43.5505801]}}, {"type": "Feature", "properties": {"id": "MC0395", "name": "saint cannat", "ordre": 395, "adresse": "Route d’Aix, Lotissement la Nouvelle Galinette, Saint-Cannat", "cumul_km": 6278.7}, "geometry": {"type": "Point", "coordinates": [5.3084109, 43.6178732]}}, {"type": "Feature", "properties": {"id": "MC0396", "name": "aix en provence", "ordre": 396, "adresse": "D 9, Les Milles, Aix-en-Provence", "cumul_km": 6296.6}, "geometry": {"type": "Point", "coordinates": [5.3973703, 43.505764]}}, {"type": "Feature", "properties": {"id": "MC0397", "name": "aix ampere", "ordre": 397, "adresse": "Rue André Ampère, Les Milles, Aix-en-Provence", "cumul_km": 6299.8}, "geometry": {"type": "Point", "coordinates": [5.3775774, 43.4872988]}}, {"type": "Feature", "properties": {"id": "MC0398", "name": "aix les milles", "ordre": 398, "adresse": "Rue André Ampère, Les Milles, Aix-en-Provence", "cumul_km": 6299.8}, "geometry": {"type": "Point", "coordinates": [5.3775774, 43.4872988]}}, {"type": "Feature", "properties": {"id": "MC0399", "name": "gardanne", "ordre": 399, "adresse": "Rue du Petit Chemin d'Aix, Les Chemins d'Aix, Gardanne", "cumul_km": 6309.0}, "geometry": {"type": "Point", "coordinates": [5.4650687, 43.4656141]}}, {"type": "Feature", "properties": {"id": "MC0400", "name": "les pennes mirabeau", "ordre": 400, "adresse": "Chemin des Pennes aux Pins, Plan de Campagne, Les Pennes-Mirabeau", "cumul_km": 6321.8}, "geometry": {"type": "Point", "coordinates": [5.3602203, 43.4132498]}}, {"type": "Feature", "properties": {"id": "MC0401", "name": "marseille bonneveine", "ordre": 401, "adresse": "Traverse du Pas de Faon, Saint-André, Marseille 16e Arrondissement", "cumul_km": 6330.6}, "geometry": {"type": "Point", "coordinates": [5.341776, 43.3509575]}}, {"type": "Feature", "properties": {"id": "MC0402", "name": "marseille caillols", "ordre": 402, "adresse": "Traverse du Pas de Faon, Saint-André, Marseille 16e Arrondissement", "cumul_km": 6330.6}, "geometry": {"type": "Point", "coordinates": [5.341776, 43.3509575]}}, {"type": "Feature", "properties": {"id": "MC0403", "name": "marseille grand littoral bas", "ordre": 403, "adresse": "Traverse du Pas de Faon, Saint-André, Marseille 16e Arrondissement", "cumul_km": 6330.6}, "geometry": {"type": "Point", "coordinates": [5.341776, 43.3509575]}}, {"type": "Feature", "properties": {"id": "MC0404", "name": "marseille grand littoral haut", "ordre": 404, "adresse": "Traverse du Pas de Faon, Saint-André, Marseille 16e Arrondissement", "cumul_km": 6330.6}, "geometry": {"type": "Point", "coordinates": [5.341776, 43.3509575]}}, {"type": "Feature", "properties": {"id": "MC0405", "name": "marseille mourepiane", "ordre": 405, "adresse": "Traverse du Pas de Faon, Saint-André, Marseille 16e Arrondissement", "cumul_km": 6330.6}, "geometry": {"type": "Point", "coordinates": [5.341776, 43.3509575]}}, {"type": "Feature", "properties": {"id": "MC0406", "name": "marseille plan de campagne", "ordre": 406, "adresse": "Traverse du Pas de Faon, Saint-André, Marseille 16e Arrondissement", "cumul_km": 6330.6}, "geometry": {"type": "Point", "coordinates": [5.341776, 43.3509575]}}, {"type": "Feature", "properties": {"id": "MC0407", "name": "marseille saint barnabe", "ordre": 407, "adresse": "Traverse du Pas de Faon, Saint-André, Marseille 16e Arrondissement", "cumul_km": 6330.6}, "geometry": {"type": "Point", "coordinates": [5.341776, 43.3509575]}}, {"type": "Feature", "properties": {"id": "MC0408", "name": "marseille saint barthelemy", "ordre": 408, "adresse": "Traverse du Pas de Faon, Saint-André, Marseille 16e Arrondissement", "cumul_km": 6330.6}, "geometry": {"type": "Point", "coordinates": [5.341776, 43.3509575]}}, {"type": "Feature", "properties": {"id": "MC0409", "name": "marseille saint charles", "ordre": 409, "adresse": "Traverse du Pas de Faon, Saint-André, Marseille 16e Arrondissement", "cumul_km": 6330.6}, "geometry": {"type": "Point", "coordinates": [5.341776, 43.3509575]}}, {"type": "Feature", "properties": {"id": "MC0410", "name": "marseille saint ferreol", "ordre": 410, "adresse": "Traverse du Pas de Faon, Saint-André, Marseille 16e Arrondissement", "cumul_km": 6330.6}, "geometry": {"type": "Point", "coordinates": [5.341776, 43.3509575]}},